[{"city":"Malishevë","lat":"42.4822","lon":"20.7458","country":"Kosovo","currency":"Euro","codeCurrency":"EUR"},{"city":"Prizren","lat":"42.2139","lon":"20.7397","country":"Kosovo","currency":"Euro","codeCurrency":"EUR"},{"city":"Zubin Potok","lat":"42.9144","lon":"20.6897","country":"Kosovo","currency":"Euro","codeCurrency":"EUR"},{"city":"Kamenicë","lat":"42.5781","lon":"21.5803","country":"Kosovo","currency":"Euro","codeCurrency":"EUR"},{"city":"Viti","lat":"42.3214","lon":"21.3583","country":"Kosovo","currency":"Euro","codeCurrency":"EUR"},{"city":"Shtërpcë","lat":"42.2394","lon":"21.0272","country":"Kosovo","currency":"Euro","codeCurrency":"EUR"},{"city":"Shtime","lat":"42.4331","lon":"21.0397","country":"Kosovo","currency":"Euro","codeCurrency":"EUR"},{"city":"Vushtrri","lat":"42.8231","lon":"20.9675","country":"Kosovo","currency":"Euro","codeCurrency":"EUR"},{"city":"Dragash","lat":"42.0265","lon":"20.6533","country":"Kosovo","currency":"Euro","codeCurrency":"EUR"},{"city":"Podujevë","lat":"42.9111","lon":"21.1899","country":"Kosovo","currency":"Euro","codeCurrency":"EUR"},{"city":"Fushë Kosovë","lat":"42.6639","lon":"21.0961","country":"Kosovo","currency":"Euro","codeCurrency":"EUR"},{"city":"Kaçanik","lat":"42.2319","lon":"21.2594","country":"Kosovo","currency":"Euro","codeCurrency":"EUR"},{"city":"Klinë","lat":"42.6217","lon":"20.5778","country":"Kosovo","currency":"Euro","codeCurrency":"EUR"},{"city":"Leposaviq","lat":"43.1039","lon":"20.8028","country":"Kosovo","currency":"Euro","codeCurrency":"EUR"},{"city":"Pejë","lat":"42.66","lon":"20.2922","country":"Kosovo","currency":"Euro","codeCurrency":"EUR"},{"city":"Rahovec","lat":"42.3994","lon":"20.6547","country":"Kosovo","currency":"Euro","codeCurrency":"EUR"},{"city":"Gjilan","lat":"42.4689","lon":"21.4633","country":"Kosovo","currency":"Euro","codeCurrency":"EUR"},{"city":"Lipjan","lat":"42.5217","lon":"21.1258","country":"Kosovo","currency":"Euro","codeCurrency":"EUR"},{"city":"Obiliq","lat":"42.6869","lon":"21.0703","country":"Kosovo","currency":"Euro","codeCurrency":"EUR"},{"city":"Gjakovë","lat":"42.3803","lon":"20.4308","country":"Kosovo","currency":"Euro","codeCurrency":"EUR"},{"city":"Pristina","lat":"42.6666","lon":"21.1724","country":"Kosovo","currency":"Euro","codeCurrency":"EUR"},{"city":"Deçan","lat":"42.5378","lon":"20.2911","country":"Kosovo","currency":"Euro","codeCurrency":"EUR"},{"city":"Istog","lat":"42.7808","lon":"20.4875","country":"Kosovo","currency":"Euro","codeCurrency":"EUR"},{"city":"Hani i Elezit","lat":"42.15","lon":"21.2967","country":"Kosovo","currency":"Euro","codeCurrency":"EUR"},{"city":"Junik","lat":"42.4758","lon":"20.2772","country":"Kosovo","currency":"Euro","codeCurrency":"EUR"},{"city":"Kllokot","lat":"42.3714","lon":"21.3744","country":"Kosovo","currency":"Euro","codeCurrency":"EUR"},{"city":"Mamushë","lat":"42.3308","lon":"20.7269","country":"Kosovo","currency":"Euro","codeCurrency":"EUR"},{"city":"Partesh","lat":"42.4019","lon":"21.4336","country":"Kosovo","currency":"Euro","codeCurrency":"EUR"},{"city":"Ranillug","lat":"42.4922","lon":"21.5989","country":"Kosovo","currency":"Euro","codeCurrency":"EUR"},{"city":"Ferizaj","lat":"42.3706","lon":"21.1553","country":"Kosovo","currency":"Euro","codeCurrency":"EUR"},{"city":"Zveçan","lat":"42.9075","lon":"20.8403","country":"Kosovo","currency":"Euro","codeCurrency":"EUR"},{"city":"Suharekë","lat":"42.3586","lon":"20.825","country":"Kosovo","currency":"Euro","codeCurrency":"EUR"},{"city":"Gllogovc","lat":"42.6283","lon":"20.8939","country":"Kosovo","currency":"Euro","codeCurrency":"EUR"},{"city":"Mitrovicë","lat":"42.8833","lon":"20.8667","country":"Kosovo","currency":"Euro","codeCurrency":"EUR"},{"city":"Skenderaj","lat":"42.7467","lon":"20.7886","country":"Kosovo","currency":"Euro","codeCurrency":"EUR"},{"city":"Novobërdë","lat":"42.6178","lon":"21.4197","country":"Kosovo","currency":"Euro","codeCurrency":"EUR"},{"city":"Graçanicë","lat":"42.6011","lon":"21.1958","country":"Kosovo","currency":"Euro","codeCurrency":"EUR"},{"city":"Longyearbyen","lat":"78.2167","lon":"15.6333","country":"Svalbard"},{"city":"Al Quds","lat":"31.7764","lon":"35.2269","country":"West Bank"},{"city":"Sanaa","lat":"15.3547","lon":"44.2066","country":"Yemen","currency":"Yemeni rial","codeCurrency":"YER","codeCountry":"ye"},{"city":"Marib","lat":"15.421","lon":"45.334","country":"Yemen","currency":"Yemeni rial","codeCurrency":"YER","codeCountry":"ye"},{"city":"Al Jabīn","lat":"14.704","lon":"43.599","country":"Yemen","currency":"Yemeni rial","codeCurrency":"YER","codeCountry":"ye"},{"city":"Hajjah","lat":"15.6917","lon":"43.6021","country":"Yemen","currency":"Yemeni rial","codeCurrency":"YER","codeCountry":"ye"},{"city":"Ibb","lat":"13.9759","lon":"44.1709","country":"Yemen","currency":"Yemeni rial","codeCurrency":"YER","codeCountry":"ye"},{"city":"Al Hudaydah","lat":"14.7979","lon":"42.953","country":"Yemen","currency":"Yemeni rial","codeCurrency":"YER","codeCountry":"ye"},{"city":"Lahij","lat":"13.0582","lon":"44.8838","country":"Yemen","currency":"Yemeni rial","codeCurrency":"YER","codeCountry":"ye"},{"city":"Al Maḩwīt","lat":"15.4701","lon":"43.5448","country":"Yemen","currency":"Yemeni rial","codeCurrency":"YER","codeCountry":"ye"},{"city":"Taizz","lat":"13.6045","lon":"44.0394","country":"Yemen","currency":"Yemeni rial","codeCurrency":"YER","codeCountry":"ye"},{"city":"Sadah","lat":"16.9398","lon":"43.8498","country":"Yemen","currency":"Yemeni rial","codeCurrency":"YER","codeCountry":"ye"},{"city":"Dhamar","lat":"14.5575","lon":"44.3875","country":"Yemen","currency":"Yemeni rial","codeCurrency":"YER","codeCountry":"ye"},{"city":"‘Amrān","lat":"15.6594","lon":"43.9439","country":"Yemen","currency":"Yemeni rial","codeCurrency":"YER","codeCountry":"ye"},{"city":"Aḑ Ḑāli‘","lat":"13.6957","lon":"44.7314","country":"Yemen","currency":"Yemeni rial","codeCurrency":"YER","codeCountry":"ye"},{"city":"Saywun","lat":"15.943","lon":"48.7873","country":"Yemen","currency":"Yemeni rial","codeCurrency":"YER","codeCountry":"ye"},{"city":"Al Bayda","lat":"13.979","lon":"45.574","country":"Yemen","currency":"Yemeni rial","codeCurrency":"YER","codeCountry":"ye"},{"city":"Zinjibār","lat":"13.1287","lon":"45.3807","country":"Yemen","currency":"Yemeni rial","codeCurrency":"YER","codeCountry":"ye"},{"city":"Rida","lat":"14.4295","lon":"44.8341","country":"Yemen","currency":"Yemeni rial","codeCurrency":"YER","codeCountry":"ye"},{"city":"'Ataq","lat":"14.55","lon":"46.8","country":"Yemen","currency":"Yemeni rial","codeCurrency":"YER","codeCountry":"ye"},{"city":"Al Ghaydah","lat":"16.2394","lon":"52.1638","country":"Yemen","currency":"Yemeni rial","codeCurrency":"YER","codeCountry":"ye"},{"city":"Sayhut","lat":"15.2105","lon":"51.2454","country":"Yemen","currency":"Yemeni rial","codeCurrency":"YER","codeCountry":"ye"},{"city":"Al Mukalla","lat":"14.5412","lon":"49.1259","country":"Yemen","currency":"Yemeni rial","codeCurrency":"YER","codeCountry":"ye"},{"city":"Al Ḩazm","lat":"16.1641","lon":"44.7769","country":"Yemen","currency":"Yemeni rial","codeCurrency":"YER","codeCountry":"ye"},{"city":"Zabīd","lat":"14.1951","lon":"43.3155","country":"Yemen","currency":"Yemeni rial","codeCurrency":"YER","codeCountry":"ye"},{"city":"Aden","lat":"12.7797","lon":"45.0095","country":"Yemen","currency":"Yemeni rial","codeCurrency":"YER","codeCountry":"ye"},{"city":"Hadiboh","lat":"12.6519","lon":"54.0239","country":"Yemen","currency":"Yemeni rial","codeCurrency":"YER","codeCountry":"ye"},{"city":"Ash Shihr","lat":"14.7593","lon":"49.6092","country":"Yemen","currency":"Yemeni rial","codeCurrency":"YER","codeCountry":"ye"},{"city":"Dzaoudzi","lat":"-12.7871","lon":"45.275","country":"Mayotte","codeCountry":"yt"},{"city":"Lebowakgomo","lat":"-24.1996","lon":"29.5","country":"South Africa","currency":"South African rand","codeCurrency":"ZAR","codeCountry":"za"},{"city":"Potchefstroom","lat":"-26.6996","lon":"27.1","country":"South Africa","currency":"South African rand","codeCurrency":"ZAR","codeCountry":"za"},{"city":"Graaff Reinet","lat":"-32.3","lon":"24.54","country":"South Africa","currency":"South African rand","codeCurrency":"ZAR","codeCountry":"za"},{"city":"Rustenburg","lat":"-25.65","lon":"27.24","country":"South Africa","currency":"South African rand","codeCurrency":"ZAR","codeCountry":"za"},{"city":"Brandfort","lat":"-28.6996","lon":"26.47","country":"South Africa","currency":"South African rand","codeCurrency":"ZAR","codeCountry":"za"},{"city":"Vryheid","lat":"-27.76","lon":"30.79","country":"South Africa","currency":"South African rand","codeCurrency":"ZAR","codeCountry":"za"},{"city":"Vereeniging","lat":"-26.6496","lon":"27.96","country":"South Africa","currency":"South African rand","codeCurrency":"ZAR","codeCountry":"za"},{"city":"Brits","lat":"-25.6296","lon":"27.78","country":"South Africa","currency":"South African rand","codeCurrency":"ZAR","codeCountry":"za"},{"city":"Bethlehem","lat":"-28.2196","lon":"28.3","country":"South Africa","currency":"South African rand","codeCurrency":"ZAR","codeCountry":"za"},{"city":"Ubomba","lat":"-27.5661","lon":"32.0833","country":"South Africa","currency":"South African rand","codeCurrency":"ZAR","codeCountry":"za"},{"city":"Polokwane","lat":"-23.89","lon":"29.45","country":"South Africa","currency":"South African rand","codeCurrency":"ZAR","codeCountry":"za"},{"city":"Springbok","lat":"-29.6667","lon":"17.8833","country":"South Africa","currency":"South African rand","codeCurrency":"ZAR","codeCountry":"za"},{"city":"Thohoyandou","lat":"-22.95","lon":"30.48","country":"South Africa","currency":"South African rand","codeCurrency":"ZAR","codeCountry":"za"},{"city":"Pietermaritzburg","lat":"-29.61","lon":"30.39","country":"South Africa","currency":"South African rand","codeCurrency":"ZAR","codeCountry":"za"},{"city":"Poffader","lat":"-29.1329","lon":"19.3834","country":"South Africa","currency":"South African rand","codeCurrency":"ZAR","codeCountry":"za"},{"city":"Carnarvon","lat":"-30.9496","lon":"22.1333","country":"South Africa","currency":"South African rand","codeCurrency":"ZAR","codeCountry":"za"},{"city":"Kroonstad","lat":"-27.66","lon":"27.21","country":"South Africa","currency":"South African rand","codeCurrency":"ZAR","codeCountry":"za"},{"city":"Alexander Bay","lat":"-28.6083","lon":"16.5033","country":"South Africa","currency":"South African rand","codeCurrency":"ZAR","codeCountry":"za"},{"city":"Bloemhof","lat":"-27.6496","lon":"25.59","country":"South Africa","currency":"South African rand","codeCurrency":"ZAR","codeCountry":"za"},{"city":"Hermanus","lat":"-34.4096","lon":"19.2299","country":"South Africa","currency":"South African rand","codeCurrency":"ZAR","codeCountry":"za"},{"city":"Bethal","lat":"-26.4696","lon":"29.45","country":"South Africa","currency":"South African rand","codeCurrency":"ZAR","codeCountry":"za"},{"city":"Upington","lat":"-28.46","lon":"21.23","country":"South Africa","currency":"South African rand","codeCurrency":"ZAR","codeCountry":"za"},{"city":"Tzaneen","lat":"-23.8195","lon":"30.17","country":"South Africa","currency":"South African rand","codeCurrency":"ZAR","codeCountry":"za"},{"city":"Vanhynsdorp","lat":"-31.6166","lon":"18.7333","country":"South Africa","currency":"South African rand","codeCurrency":"ZAR","codeCountry":"za"},{"city":"Kimberley","lat":"-28.7468","lon":"24.77","country":"South Africa","currency":"South African rand","codeCurrency":"ZAR","codeCountry":"za"},{"city":"Durban","lat":"-29.865","lon":"30.98","country":"South Africa","currency":"South African rand","codeCurrency":"ZAR","codeCountry":"za"},{"city":"Klerksdorp","lat":"-26.88","lon":"26.62","country":"South Africa","currency":"South African rand","codeCurrency":"ZAR","codeCountry":"za"},{"city":"Welkom","lat":"-27.97","lon":"26.73","country":"South Africa","currency":"South African rand","codeCurrency":"ZAR","codeCountry":"za"},{"city":"De Aar","lat":"-30.65","lon":"24","country":"South Africa","currency":"South African rand","codeCurrency":"ZAR","codeCountry":"za"},{"city":"Prieska","lat":"-29.6595","lon":"22.73","country":"South Africa","currency":"South African rand","codeCurrency":"ZAR","codeCountry":"za"},{"city":"Saldanha","lat":"-33.01","lon":"17.93","country":"South Africa","currency":"South African rand","codeCurrency":"ZAR","codeCountry":"za"},{"city":"Middelburg","lat":"-31.5","lon":"25.01","country":"South Africa","currency":"South African rand","codeCurrency":"ZAR","codeCountry":"za"},{"city":"Port St. Johns","lat":"-31.6279","lon":"29.5283","country":"South Africa","currency":"South African rand","codeCurrency":"ZAR","codeCountry":"za"},{"city":"Volksrust","lat":"-27.3596","lon":"29.89","country":"South Africa","currency":"South African rand","codeCurrency":"ZAR","codeCountry":"za"},{"city":"Ulundi","lat":"-28.3296","lon":"31.41","country":"South Africa","currency":"South African rand","codeCurrency":"ZAR","codeCountry":"za"},{"city":"Beaufort West","lat":"-32.3496","lon":"22.57","country":"South Africa","currency":"South African rand","codeCurrency":"ZAR","codeCountry":"za"},{"city":"Komatipoort","lat":"-25.4096","lon":"31.94","country":"South Africa","currency":"South African rand","codeCurrency":"ZAR","codeCountry":"za"},{"city":"Nelspruit","lat":"-25.4745","lon":"30.9703","country":"South Africa","currency":"South African rand","codeCurrency":"ZAR","codeCountry":"za"},{"city":"Standerton","lat":"-26.9395","lon":"29.24","country":"South Africa","currency":"South African rand","codeCurrency":"ZAR","codeCountry":"za"},{"city":"Johannesburg","lat":"-26.17","lon":"28.03","country":"South Africa","currency":"South African rand","codeCurrency":"ZAR","codeCountry":"za"},{"city":"Kuruman","lat":"-27.4496","lon":"23.42","country":"South Africa","currency":"South African rand","codeCurrency":"ZAR","codeCountry":"za"},{"city":"Paarl","lat":"-33.6996","lon":"18.96","country":"South Africa","currency":"South African rand","codeCurrency":"ZAR","codeCountry":"za"},{"city":"Worcester","lat":"-33.64","lon":"19.4399","country":"South Africa","currency":"South African rand","codeCurrency":"ZAR","codeCountry":"za"},{"city":"Colesberg","lat":"-30.7195","lon":"25.1","country":"South Africa","currency":"South African rand","codeCurrency":"ZAR","codeCountry":"za"},{"city":"Umtata","lat":"-31.58","lon":"28.79","country":"South Africa","currency":"South African rand","codeCurrency":"ZAR","codeCountry":"za"},{"city":"Aliwal North","lat":"-30.6896","lon":"26.71","country":"South Africa","currency":"South African rand","codeCurrency":"ZAR","codeCountry":"za"},{"city":"Middelburg","lat":"-25.7596","lon":"29.47","country":"South Africa","currency":"South African rand","codeCurrency":"ZAR","codeCountry":"za"},{"city":"Springs","lat":"-26.2696","lon":"28.43","country":"South Africa","currency":"South African rand","codeCurrency":"ZAR","codeCountry":"za"},{"city":"Benoni","lat":"-26.1496","lon":"28.3299","country":"South Africa","currency":"South African rand","codeCurrency":"ZAR","codeCountry":"za"},{"city":"Port Shepstone","lat":"-30.7195","lon":"30.46","country":"South Africa","currency":"South African rand","codeCurrency":"ZAR","codeCountry":"za"},{"city":"Oudtshoorn","lat":"-33.58","lon":"22.19","country":"South Africa","currency":"South African rand","codeCurrency":"ZAR","codeCountry":"za"},{"city":"Port Elizabeth","lat":"-33.97","lon":"25.6","country":"South Africa","currency":"South African rand","codeCurrency":"ZAR","codeCountry":"za"},{"city":"Port Alfred","lat":"-33.5995","lon":"26.88","country":"South Africa","currency":"South African rand","codeCurrency":"ZAR","codeCountry":"za"},{"city":"East London","lat":"-32.97","lon":"27.87","country":"South Africa","currency":"South African rand","codeCurrency":"ZAR","codeCountry":"za"},{"city":"Mossel Bay","lat":"-34.17","lon":"22.13","country":"South Africa","currency":"South African rand","codeCurrency":"ZAR","codeCountry":"za"},{"city":"Vryburg","lat":"-26.96","lon":"24.73","country":"South Africa","currency":"South African rand","codeCurrency":"ZAR","codeCountry":"za"},{"city":"Uitenhage","lat":"-33.7596","lon":"25.39","country":"South Africa","currency":"South African rand","codeCurrency":"ZAR","codeCountry":"za"},{"city":"Bhisho","lat":"-32.87","lon":"27.39","country":"South Africa","currency":"South African rand","codeCurrency":"ZAR","codeCountry":"za"},{"city":"Knysna","lat":"-34.0329","lon":"23.0333","country":"South Africa","currency":"South African rand","codeCurrency":"ZAR","codeCountry":"za"},{"city":"Queenstown","lat":"-31.8996","lon":"26.88","country":"South Africa","currency":"South African rand","codeCurrency":"ZAR","codeCountry":"za"},{"city":"Cradock","lat":"-32.1995","lon":"25.61","country":"South Africa","currency":"South African rand","codeCurrency":"ZAR","codeCountry":"za"},{"city":"Bredasdorp","lat":"-34.5295","lon":"20.03","country":"South Africa","currency":"South African rand","codeCurrency":"ZAR","codeCountry":"za"},{"city":"Swellendam","lat":"-34.0196","lon":"20.43","country":"South Africa","currency":"South African rand","codeCurrency":"ZAR","codeCountry":"za"},{"city":"Ladysmith","lat":"-28.5495","lon":"29.78","country":"South Africa","currency":"South African rand","codeCurrency":"ZAR","codeCountry":"za"},{"city":"George","lat":"-33.95","lon":"22.45","country":"South Africa","currency":"South African rand","codeCurrency":"ZAR","codeCountry":"za"},{"city":"Grahamstown","lat":"-33.2996","lon":"26.52","country":"South Africa","currency":"South African rand","codeCurrency":"ZAR","codeCountry":"za"},{"city":"Mmabatho","lat":"-25.83","lon":"25.61","country":"South Africa","currency":"South African rand","codeCurrency":"ZAR","codeCountry":"za"},{"city":"Mahikeng","lat":"-25.8652","lon":"25.6442","country":"South Africa","currency":"South African rand","codeCurrency":"ZAR","codeCountry":"za"},{"city":"Musina","lat":"-22.34","lon":"30.03","country":"South Africa","currency":"South African rand","codeCurrency":"ZAR","codeCountry":"za"},{"city":"Pretoria","lat":"-25.7069","lon":"28.2294","country":"South Africa","currency":"South African rand","codeCurrency":"ZAR","codeCountry":"za"},{"city":"Bloemfontein","lat":"-29.12","lon":"26.2299","country":"South Africa","currency":"South African rand","codeCurrency":"ZAR","codeCountry":"za"},{"city":"Cape Town","lat":"-33.92","lon":"18.435","country":"South Africa","currency":"South African rand","codeCurrency":"ZAR","codeCountry":"za"},{"city":"Zambezi","lat":"-13.54","lon":"23.1099","country":"Zambia","currency":"Zambian kwacha","codeCurrency":"ZMW","codeCountry":"zm"},{"city":"Solwezi","lat":"-12.1796","lon":"26.4","country":"Zambia","currency":"Zambian kwacha","codeCurrency":"ZMW","codeCountry":"zm"},{"city":"Lusaka","lat":"-15.4166","lon":"28.2833","country":"Zambia","currency":"Zambian kwacha","codeCurrency":"ZMW","codeCountry":"zm"},{"city":"Kaoma","lat":"-14.7796","lon":"24.8","country":"Zambia","currency":"Zambian kwacha","codeCurrency":"ZMW","codeCountry":"zm"},{"city":"Chipata","lat":"-13.6296","lon":"32.64","country":"Zambia","currency":"Zambian kwacha","codeCurrency":"ZMW","codeCountry":"zm"},{"city":"Senanga","lat":"-16.1196","lon":"23.27","country":"Zambia","currency":"Zambian kwacha","codeCurrency":"ZMW","codeCountry":"zm"},{"city":"Sesheke","lat":"-17.4695","lon":"24.3","country":"Zambia","currency":"Zambian kwacha","codeCurrency":"ZMW","codeCountry":"zm"},{"city":"Chililabombwe","lat":"-12.3696","lon":"27.82","country":"Zambia","currency":"Zambian kwacha","codeCurrency":"ZMW","codeCountry":"zm"},{"city":"Chingola","lat":"-12.5396","lon":"27.85","country":"Zambia","currency":"Zambian kwacha","codeCurrency":"ZMW","codeCountry":"zm"},{"city":"Kasempa","lat":"-13.4596","lon":"25.82","country":"Zambia","currency":"Zambian kwacha","codeCurrency":"ZMW","codeCountry":"zm"},{"city":"Kitwe","lat":"-12.81","lon":"28.22","country":"Zambia","currency":"Zambian kwacha","codeCurrency":"ZMW","codeCountry":"zm"},{"city":"Mufulira","lat":"-12.55","lon":"28.26","country":"Zambia","currency":"Zambian kwacha","codeCurrency":"ZMW","codeCountry":"zm"},{"city":"Nchelenge","lat":"-9.3496","lon":"28.73","country":"Zambia","currency":"Zambian kwacha","codeCurrency":"ZMW","codeCountry":"zm"},{"city":"Mazabuka","lat":"-15.86","lon":"27.76","country":"Zambia","currency":"Zambian kwacha","codeCurrency":"ZMW","codeCountry":"zm"},{"city":"Lukulu","lat":"-14.3896","lon":"23.24","country":"Zambia","currency":"Zambian kwacha","codeCurrency":"ZMW","codeCountry":"zm"},{"city":"Kafue","lat":"-15.78","lon":"28.18","country":"Zambia","currency":"Zambian kwacha","codeCurrency":"ZMW","codeCountry":"zm"},{"city":"Lundazi","lat":"-12.2895","lon":"33.17","country":"Zambia","currency":"Zambian kwacha","codeCurrency":"ZMW","codeCountry":"zm"},{"city":"Mansa","lat":"-11.2","lon":"28.89","country":"Zambia","currency":"Zambian kwacha","codeCurrency":"ZMW","codeCountry":"zm"},{"city":"Mwinilunga","lat":"-11.7396","lon":"24.44","country":"Zambia","currency":"Zambian kwacha","codeCurrency":"ZMW","codeCountry":"zm"},{"city":"Mumbwa","lat":"-14.9796","lon":"27.07","country":"Zambia","currency":"Zambian kwacha","codeCurrency":"ZMW","codeCountry":"zm"},{"city":"Kalabo","lat":"-14.9896","lon":"22.68","country":"Zambia","currency":"Zambian kwacha","codeCurrency":"ZMW","codeCountry":"zm"},{"city":"Nyimba","lat":"-14.5495","lon":"30.81","country":"Zambia","currency":"Zambian kwacha","codeCurrency":"ZMW","codeCountry":"zm"},{"city":"Kapiri Mposhi","lat":"-13.9696","lon":"28.66","country":"Zambia","currency":"Zambian kwacha","codeCurrency":"ZMW","codeCountry":"zm"},{"city":"Kabwe","lat":"-14.44","lon":"28.45","country":"Zambia","currency":"Zambian kwacha","codeCurrency":"ZMW","codeCountry":"zm"},{"city":"Ndola","lat":"-12.9999","lon":"28.65","country":"Zambia","currency":"Zambian kwacha","codeCurrency":"ZMW","codeCountry":"zm"},{"city":"Kasama","lat":"-10.1996","lon":"31.1799","country":"Zambia","currency":"Zambian kwacha","codeCurrency":"ZMW","codeCountry":"zm"},{"city":"Mbala","lat":"-8.84","lon":"31.37","country":"Zambia","currency":"Zambian kwacha","codeCurrency":"ZMW","codeCountry":"zm"},{"city":"Kawambwa","lat":"-9.7795","lon":"29.08","country":"Zambia","currency":"Zambian kwacha","codeCurrency":"ZMW","codeCountry":"zm"},{"city":"Luanshya","lat":"-13.1333","lon":"28.4","country":"Zambia","currency":"Zambian kwacha","codeCurrency":"ZMW","codeCountry":"zm"},{"city":"Mongu","lat":"-15.2796","lon":"23.12","country":"Zambia","currency":"Zambian kwacha","codeCurrency":"ZMW","codeCountry":"zm"},{"city":"Mpika","lat":"-11.83","lon":"31.46","country":"Zambia","currency":"Zambian kwacha","codeCurrency":"ZMW","codeCountry":"zm"},{"city":"Chinsali","lat":"-10.5496","lon":"32.06","country":"Zambia","currency":"Zambian kwacha","codeCurrency":"ZMW","codeCountry":"zm"},{"city":"Livingstone","lat":"-17.86","lon":"25.86","country":"Zambia","currency":"Zambian kwacha","codeCurrency":"ZMW","codeCountry":"zm"},{"city":"Choma","lat":"-16.8095","lon":"26.97","country":"Zambia","currency":"Zambian kwacha","codeCurrency":"ZMW","codeCountry":"zm"},{"city":"Plumtree","lat":"-20.4795","lon":"27.82","country":"Zimbabwe","currency":"United States dollar","codeCurrency":"USD","codeCountry":"zw"},{"city":"Kariba","lat":"-16.5296","lon":"28.8","country":"Zimbabwe","currency":"United States dollar","codeCurrency":"USD","codeCountry":"zw"},{"city":"Hwange","lat":"-18.37","lon":"26.5","country":"Zimbabwe","currency":"United States dollar","codeCurrency":"USD","codeCountry":"zw"},{"city":"Chiredzi","lat":"-21.0496","lon":"31.66","country":"Zimbabwe","currency":"United States dollar","codeCurrency":"USD","codeCountry":"zw"},{"city":"Mazowe","lat":"-17.5196","lon":"30.97","country":"Zimbabwe","currency":"United States dollar","codeCurrency":"USD","codeCountry":"zw"},{"city":"Zvishavane","lat":"-20.3296","lon":"30.05","country":"Zimbabwe","currency":"United States dollar","codeCurrency":"USD","codeCountry":"zw"},{"city":"Shamva","lat":"-17.3196","lon":"31.57","country":"Zimbabwe","currency":"United States dollar","codeCurrency":"USD","codeCountry":"zw"},{"city":"Harare","lat":"-17.8178","lon":"31.0447","country":"Zimbabwe","currency":"United States dollar","codeCurrency":"USD","codeCountry":"zw"},{"city":"Kwekwe","lat":"-18.9296","lon":"29.8","country":"Zimbabwe","currency":"United States dollar","codeCurrency":"USD","codeCountry":"zw"},{"city":"Kadoma","lat":"-18.33","lon":"29.9099","country":"Zimbabwe","currency":"United States dollar","codeCurrency":"USD","codeCountry":"zw"},{"city":"Beitbridge","lat":"-22.2096","lon":"29.99","country":"Zimbabwe","currency":"United States dollar","codeCurrency":"USD","codeCountry":"zw"},{"city":"Karoi","lat":"-16.8196","lon":"29.68","country":"Zimbabwe","currency":"United States dollar","codeCurrency":"USD","codeCountry":"zw"},{"city":"Victoria Falls","lat":"-17.9296","lon":"25.84","country":"Zimbabwe","currency":"United States dollar","codeCurrency":"USD","codeCountry":"zw"},{"city":"Chitungwiza","lat":"-18","lon":"31.1","country":"Zimbabwe","currency":"United States dollar","codeCurrency":"USD","codeCountry":"zw"},{"city":"Bindura","lat":"-17.3019","lon":"31.3306","country":"Zimbabwe","currency":"United States dollar","codeCurrency":"USD","codeCountry":"zw"},{"city":"Lupane","lat":"-18.9315","lon":"27.807","country":"Zimbabwe","currency":"United States dollar","codeCurrency":"USD","codeCountry":"zw"},{"city":"Marondera","lat":"-18.1853","lon":"31.5519","country":"Zimbabwe","currency":"United States dollar","codeCurrency":"USD","codeCountry":"zw"},{"city":"Masvingo","lat":"-20.0596","lon":"30.82","country":"Zimbabwe","currency":"United States dollar","codeCurrency":"USD","codeCountry":"zw"},{"city":"Mutare","lat":"-18.97","lon":"32.65","country":"Zimbabwe","currency":"United States dollar","codeCurrency":"USD","codeCountry":"zw"},{"city":"Bulawayo","lat":"-20.17","lon":"28.58","country":"Zimbabwe","currency":"United States dollar","codeCurrency":"USD","codeCountry":"zw"},{"city":"Chinhoyi","lat":"-17.3596","lon":"30.18","country":"Zimbabwe","currency":"United States dollar","codeCurrency":"USD","codeCountry":"zw"},{"city":"Gwanda","lat":"-20.9396","lon":"29.01","country":"Zimbabwe","currency":"United States dollar","codeCurrency":"USD","codeCountry":"zw"},{"city":"Gweru","lat":"-19.45","lon":"29.82","country":"Zimbabwe","currency":"United States dollar","codeCurrency":"USD","codeCountry":"zw"},{"city":"Maqat","lat":"47.6482","lon":"53.3265","country":"Kazakhstan","currency":"Kazakhstani tenge","codeCurrency":"KZT","codeCountry":"kz"},{"city":"Zhangaozen","lat":"43.3004","lon":"52.8","country":"Kazakhstan","currency":"Kazakhstani tenge","codeCurrency":"KZT","codeCountry":"kz"},{"city":"Taraz","lat":"42.9","lon":"71.365","country":"Kazakhstan","currency":"Kazakhstani tenge","codeCurrency":"KZT","codeCountry":"kz"},{"city":"Oral","lat":"51.2711","lon":"51.335","country":"Kazakhstan","currency":"Kazakhstani tenge","codeCurrency":"KZT","codeCountry":"kz"},{"city":"Balqash","lat":"46.8532","lon":"74.9502","country":"Kazakhstan","currency":"Kazakhstani tenge","codeCurrency":"KZT","codeCountry":"kz"},{"city":"Zaysan","lat":"47.4752","lon":"84.8598","country":"Kazakhstan","currency":"Kazakhstani tenge","codeCurrency":"KZT","codeCountry":"kz"},{"city":"Oytal","lat":"42.9153","lon":"73.2549","country":"Kazakhstan","currency":"Kazakhstani tenge","codeCurrency":"KZT","codeCountry":"kz"},{"city":"Zholymbet","lat":"51.7502","lon":"71.7099","country":"Kazakhstan","currency":"Kazakhstani tenge","codeCurrency":"KZT","codeCountry":"kz"},{"city":"Serebryansk","lat":"49.6999","lon":"83.4249","country":"Kazakhstan","currency":"Kazakhstani tenge","codeCurrency":"KZT","codeCountry":"kz"},{"city":"Chapaev","lat":"50.1915","lon":"51.1449","country":"Kazakhstan","currency":"Kazakhstani tenge","codeCurrency":"KZT","codeCountry":"kz"},{"city":"Ridder","lat":"50.3554","lon":"83.5149","country":"Kazakhstan","currency":"Kazakhstani tenge","codeCurrency":"KZT","codeCountry":"kz"},{"city":"Zhaltyr","lat":"51.6324","lon":"69.8328","country":"Kazakhstan","currency":"Kazakhstani tenge","codeCurrency":"KZT","codeCountry":"kz"},{"city":"Atbasar","lat":"51.8219","lon":"68.3477","country":"Kazakhstan","currency":"Kazakhstani tenge","codeCurrency":"KZT","codeCountry":"kz"},{"city":"Aqsay","lat":"51.1714","lon":"53.0349","country":"Kazakhstan","currency":"Kazakhstani tenge","codeCurrency":"KZT","codeCountry":"kz"},{"city":"Shemonaikha","lat":"50.6316","lon":"81.905","country":"Kazakhstan","currency":"Kazakhstani tenge","codeCurrency":"KZT","codeCountry":"kz"},{"city":"Atasu","lat":"48.6903","lon":"71.6499","country":"Kazakhstan","currency":"Kazakhstani tenge","codeCurrency":"KZT","codeCountry":"kz"},{"city":"Rudny","lat":"52.9527","lon":"63.13","country":"Kazakhstan","currency":"Kazakhstani tenge","codeCurrency":"KZT","codeCountry":"kz"},{"city":"Makhambet","lat":"47.6714","lon":"51.5798","country":"Kazakhstan","currency":"Kazakhstani tenge","codeCurrency":"KZT","codeCountry":"kz"},{"city":"Fort Shevchenko","lat":"44.5171","lon":"50.2666","country":"Kazakhstan","currency":"Kazakhstani tenge","codeCurrency":"KZT","codeCountry":"kz"},{"city":"Qusmuryn","lat":"52.458","lon":"64.6","country":"Kazakhstan","currency":"Kazakhstani tenge","codeCurrency":"KZT","codeCountry":"kz"},{"city":"Oktyabrsk","lat":"49.4731","lon":"57.4449","country":"Kazakhstan","currency":"Kazakhstani tenge","codeCurrency":"KZT","codeCountry":"kz"},{"city":"Khromtau","lat":"50.2699","lon":"58.45","country":"Kazakhstan","currency":"Kazakhstani tenge","codeCurrency":"KZT","codeCountry":"kz"},{"city":"Algha","lat":"49.9032","lon":"57.335","country":"Kazakhstan","currency":"Kazakhstani tenge","codeCurrency":"KZT","codeCountry":"kz"},{"city":"Embi","lat":"48.8268","lon":"58.1442","country":"Kazakhstan","currency":"Kazakhstani tenge","codeCurrency":"KZT","codeCountry":"kz"},{"city":"Ushtobe","lat":"45.2653","lon":"77.97","country":"Kazakhstan","currency":"Kazakhstani tenge","codeCurrency":"KZT","codeCountry":"kz"},{"city":"Burylbaytal","lat":"44.9387","lon":"74.0303","country":"Kazakhstan","currency":"Kazakhstani tenge","codeCurrency":"KZT","codeCountry":"kz"},{"city":"Zhanibek","lat":"49.4276","lon":"46.8772","country":"Kazakhstan","currency":"Kazakhstani tenge","codeCurrency":"KZT","codeCountry":"kz"},{"city":"Esil","lat":"51.957","lon":"66.3775","country":"Kazakhstan","currency":"Kazakhstani tenge","codeCurrency":"KZT","codeCountry":"kz"},{"city":"Derzhavinsk","lat":"51.1021","lon":"66.3075","country":"Kazakhstan","currency":"Kazakhstani tenge","codeCurrency":"KZT","codeCountry":"kz"},{"city":"Saryshaghan","lat":"46.1195","lon":"73.6191","country":"Kazakhstan","currency":"Kazakhstani tenge","codeCurrency":"KZT","codeCountry":"kz"},{"city":"Turgay","lat":"49.626","lon":"63.499","country":"Kazakhstan","currency":"Kazakhstani tenge","codeCurrency":"KZT","codeCountry":"kz"},{"city":"Sarqan","lat":"45.4203","lon":"79.9149","country":"Kazakhstan","currency":"Kazakhstani tenge","codeCurrency":"KZT","codeCountry":"kz"},{"city":"Arqalyq","lat":"50.2418","lon":"66.8976","country":"Kazakhstan","currency":"Kazakhstani tenge","codeCurrency":"KZT","codeCountry":"kz"},{"city":"Shalqar","lat":"47.8363","lon":"59.6141","country":"Kazakhstan","currency":"Kazakhstani tenge","codeCurrency":"KZT","codeCountry":"kz"},{"city":"Shieli","lat":"44.167","lon":"66.75","country":"Kazakhstan","currency":"Kazakhstani tenge","codeCurrency":"KZT","codeCountry":"kz"},{"city":"Bayghanin","lat":"48.6917","lon":"55.874","country":"Kazakhstan","currency":"Kazakhstani tenge","codeCurrency":"KZT","codeCountry":"kz"},{"city":"Zhezqazghan","lat":"47.78","lon":"67.77","country":"Kazakhstan","currency":"Kazakhstani tenge","codeCurrency":"KZT","codeCountry":"kz"},{"city":"Mangyshlak","lat":"43.6905","lon":"51.1417","country":"Kazakhstan","currency":"Kazakhstani tenge","codeCurrency":"KZT","codeCountry":"kz"},{"city":"Zhosaly","lat":"45.4877","lon":"64.078","country":"Kazakhstan","currency":"Kazakhstani tenge","codeCurrency":"KZT","codeCountry":"kz"},{"city":"Beyneu","lat":"45.1834","lon":"55.1","country":"Kazakhstan","currency":"Kazakhstani tenge","codeCurrency":"KZT","codeCountry":"kz"},{"city":"Qazaly","lat":"45.7628","lon":"62.1075","country":"Kazakhstan","currency":"Kazakhstani tenge","codeCurrency":"KZT","codeCountry":"kz"},{"city":"Aral","lat":"46.8","lon":"61.6666","country":"Kazakhstan","currency":"Kazakhstani tenge","codeCurrency":"KZT","codeCountry":"kz"},{"city":"Ayakoz","lat":"47.9647","lon":"80.4297","country":"Kazakhstan","currency":"Kazakhstani tenge","codeCurrency":"KZT","codeCountry":"kz"},{"city":"Urzhar","lat":"47.1002","lon":"81.6048","country":"Kazakhstan","currency":"Kazakhstani tenge","codeCurrency":"KZT","codeCountry":"kz"},{"city":"Qapshaghay","lat":"43.8844","lon":"77.0687","country":"Kazakhstan","currency":"Kazakhstani tenge","codeCurrency":"KZT","codeCountry":"kz"},{"city":"Esik","lat":"43.3691","lon":"77.4438","country":"Kazakhstan","currency":"Kazakhstani tenge","codeCurrency":"KZT","codeCountry":"kz"},{"city":"Qaratau","lat":"43.1854","lon":"70.46","country":"Kazakhstan","currency":"Kazakhstani tenge","codeCurrency":"KZT","codeCountry":"kz"},{"city":"Sharbaqty","lat":"52.4999","lon":"78.1499","country":"Kazakhstan","currency":"Kazakhstani tenge","codeCurrency":"KZT","codeCountry":"kz"},{"city":"Oostanay","lat":"53.2209","lon":"63.6283","country":"Kazakhstan","currency":"Kazakhstani tenge","codeCurrency":"KZT","codeCountry":"kz"},{"city":"Kachiry","lat":"53.0804","lon":"76.09","country":"Kazakhstan","currency":"Kazakhstani tenge","codeCurrency":"KZT","codeCountry":"kz"},{"city":"Kishkenekol","lat":"53.6368","lon":"72.3414","country":"Kazakhstan","currency":"Kazakhstani tenge","codeCurrency":"KZT","codeCountry":"kz"},{"city":"Bulaevo","lat":"54.9053","lon":"70.44","country":"Kazakhstan","currency":"Kazakhstani tenge","codeCurrency":"KZT","codeCountry":"kz"},{"city":"Shonzhy","lat":"43.5421","lon":"79.4703","country":"Kazakhstan","currency":"Kazakhstani tenge","codeCurrency":"KZT","codeCountry":"kz"},{"city":"Qyzylorda","lat":"44.8","lon":"65.465","country":"Kazakhstan","currency":"Kazakhstani tenge","codeCurrency":"KZT","codeCountry":"kz"},{"city":"Qaraghandy","lat":"49.885","lon":"73.115","country":"Kazakhstan","currency":"Kazakhstani tenge","codeCurrency":"KZT","codeCountry":"kz"},{"city":"Ertis","lat":"53.3453","lon":"75.4499","country":"Kazakhstan","currency":"Kazakhstani tenge","codeCurrency":"KZT","codeCountry":"kz"},{"city":"Tayynsha","lat":"53.8481","lon":"69.7638","country":"Kazakhstan","currency":"Kazakhstani tenge","codeCurrency":"KZT","codeCountry":"kz"},{"city":"Qulan","lat":"42.9204","lon":"72.705","country":"Kazakhstan","currency":"Kazakhstani tenge","codeCurrency":"KZT","codeCountry":"kz"},{"city":"Shu","lat":"43.5953","lon":"73.7448","country":"Kazakhstan","currency":"Kazakhstani tenge","codeCurrency":"KZT","codeCountry":"kz"},{"city":"Kentau","lat":"43.5165","lon":"68.5199","country":"Kazakhstan","currency":"Kazakhstani tenge","codeCurrency":"KZT","codeCountry":"kz"},{"city":"Oskemen","lat":"49.99","lon":"82.6149","country":"Kazakhstan","currency":"Kazakhstani tenge","codeCurrency":"KZT","codeCountry":"kz"},{"city":"Aqtau","lat":"43.6232","lon":"51.2365","country":"Kazakhstan","currency":"Kazakhstani tenge","codeCurrency":"KZT","codeCountry":"kz"},{"city":"Taldyqorghan","lat":"45","lon":"78.4","country":"Kazakhstan","currency":"Kazakhstani tenge","codeCurrency":"KZT","codeCountry":"kz"},{"city":"Astana","lat":"51.1811","lon":"71.4278","country":"Kazakhstan","currency":"Kazakhstani tenge","codeCurrency":"KZT","codeCountry":"kz"},{"city":"Aqtobe","lat":"50.28","lon":"57.17","country":"Kazakhstan","currency":"Kazakhstani tenge","codeCurrency":"KZT","codeCountry":"kz"},{"city":"Kokshetau","lat":"53.3","lon":"69.42","country":"Kazakhstan","currency":"Kazakhstani tenge","codeCurrency":"KZT","codeCountry":"kz"},{"city":"Petropavlovsk","lat":"54.88","lon":"69.22","country":"Kazakhstan","currency":"Kazakhstani tenge","codeCurrency":"KZT","codeCountry":"kz"},{"city":"Pavlodar","lat":"52.3","lon":"76.95","country":"Kazakhstan","currency":"Kazakhstani tenge","codeCurrency":"KZT","codeCountry":"kz"},{"city":"Otar","lat":"43.5346","lon":"75.2139","country":"Kazakhstan","currency":"Kazakhstani tenge","codeCurrency":"KZT","codeCountry":"kz"},{"city":"Almaty","lat":"43.325","lon":"76.915","country":"Kazakhstan","currency":"Kazakhstani tenge","codeCurrency":"KZT","codeCountry":"kz"},{"city":"Bestobe","lat":"52.4997","lon":"73.0997","country":"Kazakhstan","currency":"Kazakhstani tenge","codeCurrency":"KZT","codeCountry":"kz"},{"city":"Arys","lat":"42.4369","lon":"68.8048","country":"Kazakhstan","currency":"Kazakhstani tenge","codeCurrency":"KZT","codeCountry":"kz"},{"city":"Lenger","lat":"42.1899","lon":"69.8799","country":"Kazakhstan","currency":"Kazakhstani tenge","codeCurrency":"KZT","codeCountry":"kz"},{"city":"Aqsu","lat":"52.4502","lon":"71.9597","country":"Kazakhstan","currency":"Kazakhstani tenge","codeCurrency":"KZT","codeCountry":"kz"},{"city":"Temirtau","lat":"50.065","lon":"72.965","country":"Kazakhstan","currency":"Kazakhstani tenge","codeCurrency":"KZT","codeCountry":"kz"},{"city":"Makinsk","lat":"52.6404","lon":"70.41","country":"Kazakhstan","currency":"Kazakhstani tenge","codeCurrency":"KZT","codeCountry":"kz"},{"city":"Osakarovka","lat":"50.5799","lon":"72.5699","country":"Kazakhstan","currency":"Kazakhstani tenge","codeCurrency":"KZT","codeCountry":"kz"},{"city":"Qarqaraly","lat":"49.4249","lon":"75.4649","country":"Kazakhstan","currency":"Kazakhstani tenge","codeCurrency":"KZT","codeCountry":"kz"},{"city":"Ekibastuz","lat":"51.73","lon":"75.3199","country":"Kazakhstan","currency":"Kazakhstani tenge","codeCurrency":"KZT","codeCountry":"kz"},{"city":"Zyryanovsk","lat":"49.7453","lon":"84.2548","country":"Kazakhstan","currency":"Kazakhstani tenge","codeCurrency":"KZT","codeCountry":"kz"},{"city":"Komsomolets","lat":"53.7506","lon":"62.0502","country":"Kazakhstan","currency":"Kazakhstani tenge","codeCurrency":"KZT","codeCountry":"kz"},{"city":"Baykonur","lat":"45.6914","lon":"63.2413","country":"Kazakhstan","currency":"Kazakhstani tenge","codeCurrency":"KZT","codeCountry":"kz"},{"city":"Erymentau","lat":"51.6303","lon":"73.1049","country":"Kazakhstan","currency":"Kazakhstani tenge","codeCurrency":"KZT","codeCountry":"kz"},{"city":"Qarazhal","lat":"48.0253","lon":"70.7999","country":"Kazakhstan","currency":"Kazakhstani tenge","codeCurrency":"KZT","codeCountry":"kz"},{"city":"Tobol","lat":"52.698","lon":"62.5749","country":"Kazakhstan","currency":"Kazakhstani tenge","codeCurrency":"KZT","codeCountry":"kz"},{"city":"Shar","lat":"49.6003","lon":"81.0549","country":"Kazakhstan","currency":"Kazakhstani tenge","codeCurrency":"KZT","codeCountry":"kz"},{"city":"Semey","lat":"50.435","lon":"80.275","country":"Kazakhstan","currency":"Kazakhstani tenge","codeCurrency":"KZT","codeCountry":"kz"},{"city":"Boralday","lat":"43.3341","lon":"76.8288","country":"Kazakhstan","currency":"Kazakhstani tenge","codeCurrency":"KZT","codeCountry":"kz"},{"city":"Zhetiqara","lat":"52.193","lon":"61.2399","country":"Kazakhstan","currency":"Kazakhstani tenge","codeCurrency":"KZT","codeCountry":"kz"},{"city":"Aqadyr","lat":"48.2749","lon":"72.8599","country":"Kazakhstan","currency":"Kazakhstani tenge","codeCurrency":"KZT","codeCountry":"kz"},{"city":"Zharkent","lat":"44.1616","lon":"79.9801","country":"Kazakhstan","currency":"Kazakhstani tenge","codeCurrency":"KZT","codeCountry":"kz"},{"city":"Qulsary","lat":"46.9833","lon":"54.0165","country":"Kazakhstan","currency":"Kazakhstani tenge","codeCurrency":"KZT","codeCountry":"kz"},{"city":"Balyqshy","lat":"47.0666","lon":"51.8666","country":"Kazakhstan","currency":"Kazakhstani tenge","codeCurrency":"KZT","codeCountry":"kz"},{"city":"Atyrau","lat":"47.1127","lon":"51.92","country":"Kazakhstan","currency":"Kazakhstani tenge","codeCurrency":"KZT","codeCountry":"kz"},{"city":"Shymkent","lat":"42.32","lon":"69.595","country":"Kazakhstan","currency":"Kazakhstani tenge","codeCurrency":"KZT","codeCountry":"kz"},{"city":"Turkistan","lat":"43.3016","lon":"68.2549","country":"Kazakhstan","currency":"Kazakhstani tenge","codeCurrency":"KZT","codeCountry":"kz"},{"city":"Xiangkhoang","lat":"19.3337","lon":"103.3666","country":"Laos","currency":"Lao kip","codeCurrency":"LAK"},{"city":"Muang Phônsavan","lat":"19.45","lon":"103.2167","country":"Laos","currency":"Lao kip","codeCurrency":"LAK"},{"city":"Vientiane","lat":"17.9667","lon":"102.6","country":"Laos","currency":"Lao kip","codeCurrency":"LAK"},{"city":"Ban Houayxay","lat":"20.2775","lon":"100.4128","country":"Laos","currency":"Lao kip","codeCurrency":"LAK"},{"city":"Muang Phôn-Hông","lat":"18.4957","lon":"102.4142","country":"Laos","currency":"Lao kip","codeCurrency":"LAK"},{"city":"Louang Namtha","lat":"20.95","lon":"101.4167","country":"Laos","currency":"Lao kip","codeCurrency":"LAK"},{"city":"Phongsali","lat":"21.6833","lon":"102.1","country":"Laos","currency":"Lao kip","codeCurrency":"LAK"},{"city":"Thakhek","lat":"17.4112","lon":"104.8361","country":"Laos","currency":"Lao kip","codeCurrency":"LAK"},{"city":"Muang Pakxan","lat":"18.3826","lon":"103.6586","country":"Laos","currency":"Lao kip","codeCurrency":"LAK"},{"city":"Louangphrabang","lat":"19.8845","lon":"102.1416","country":"Laos","currency":"Lao kip","codeCurrency":"LAK"},{"city":"Xaignabouri","lat":"19.2505","lon":"101.7501","country":"Laos","currency":"Lao kip","codeCurrency":"LAK"},{"city":"Savannakhet","lat":"16.5376","lon":"104.773","country":"Laos","currency":"Lao kip","codeCurrency":"LAK"},{"city":"Lamam","lat":"15.4171","lon":"106.6946","country":"Laos","currency":"Lao kip","codeCurrency":"LAK"},{"city":"Pakxe","lat":"15.1221","lon":"105.8183","country":"Laos","currency":"Lao kip","codeCurrency":"LAK"},{"city":"Attapu","lat":"14.808","lon":"106.839","country":"Laos","currency":"Lao kip","codeCurrency":"LAK"},{"city":"Xam Nua","lat":"20.4167","lon":"104.0333","country":"Laos","currency":"Lao kip","codeCurrency":"LAK"},{"city":"Muang Xai","lat":"20.6923","lon":"101.9847","country":"Laos","currency":"Lao kip","codeCurrency":"LAK"},{"city":"Saravan","lat":"15.716","lon":"106.427","country":"Laos","currency":"Lao kip","codeCurrency":"LAK"},{"city":"Champasak","lat":"14.8833","lon":"105.8667","country":"Laos","currency":"Lao kip","codeCurrency":"LAK"},{"city":"Beirut","lat":"33.872","lon":"35.5097","country":"Lebanon","currency":"Lebanese pound","codeCurrency":"LBP","codeCountry":"lb"},{"city":"Zahlé","lat":"33.8501","lon":"35.9042","country":"Lebanon","currency":"Lebanese pound","codeCurrency":"LBP","codeCountry":"lb"},{"city":"Baalbek","lat":"34.0058","lon":"36.2181","country":"Lebanon","currency":"Lebanese pound","codeCurrency":"LBP","codeCountry":"lb"},{"city":"B'abda","lat":"33.8333","lon":"35.5333","country":"Lebanon","currency":"Lebanese pound","codeCurrency":"LBP","codeCountry":"lb"},{"city":"Halba","lat":"34.5428","lon":"36.0797","country":"Lebanon","currency":"Lebanese pound","codeCurrency":"LBP","codeCountry":"lb"},{"city":"Saida","lat":"33.563","lon":"35.3688","country":"Lebanon","currency":"Lebanese pound","codeCurrency":"LBP","codeCountry":"lb"},{"city":"Nabatiye et Tahta","lat":"33.3833","lon":"35.45","country":"Lebanon","currency":"Lebanese pound","codeCurrency":"LBP","codeCountry":"lb"},{"city":"Trablous","lat":"34.42","lon":"35.87","country":"Lebanon","currency":"Lebanese pound","codeCurrency":"LBP","codeCountry":"lb"},{"city":"Castries","lat":"14.002","lon":"-61","country":"Saint Lucia","currency":"East Caribbean dollar","codeCurrency":"XCD","codeCountry":"lc"},{"city":"Gamprin","lat":"47.2197","lon":"9.5113","country":"Liechtenstein","currency":"Swiss franc","codeCurrency":"CHF","codeCountry":"li"},{"city":"Triesenberg","lat":"47.1182","lon":"9.5444","country":"Liechtenstein","currency":"Swiss franc","codeCurrency":"CHF","codeCountry":"li"},{"city":"Schaan","lat":"47.1661","lon":"9.5096","country":"Liechtenstein","currency":"Swiss franc","codeCurrency":"CHF","codeCountry":"li"},{"city":"Ruggell","lat":"47.2408","lon":"9.5247","country":"Liechtenstein","currency":"Swiss franc","codeCurrency":"CHF","codeCountry":"li"},{"city":"Mauren","lat":"47.2205","lon":"9.5426","country":"Liechtenstein","currency":"Swiss franc","codeCurrency":"CHF","codeCountry":"li"},{"city":"Eschen","lat":"47.2109","lon":"9.5216","country":"Liechtenstein","currency":"Swiss franc","codeCurrency":"CHF","codeCountry":"li"},{"city":"Triesen","lat":"47.1101","lon":"9.524","country":"Liechtenstein","currency":"Swiss franc","codeCurrency":"CHF","codeCountry":"li"},{"city":"Balzers","lat":"47.0667","lon":"9.5025","country":"Liechtenstein","currency":"Swiss franc","codeCurrency":"CHF","codeCountry":"li"},{"city":"Vaduz","lat":"47.1337","lon":"9.5167","country":"Liechtenstein","currency":"Swiss franc","codeCurrency":"CHF","codeCountry":"li"},{"city":"Planken","lat":"47.1844","lon":"9.5436","country":"Liechtenstein","currency":"Swiss franc","codeCurrency":"CHF","codeCountry":"li"},{"city":"Schellenberg","lat":"47.2325","lon":"9.5463","country":"Liechtenstein","currency":"Swiss franc","codeCurrency":"CHF","codeCountry":"li"},{"city":"Colombo","lat":"6.932","lon":"79.8578","country":"Sri Lanka","currency":"Sri Lankan rupee","codeCurrency":"LKR","codeCountry":"lk"},{"city":"Ratnapura","lat":"6.693","lon":"80.386","country":"Sri Lanka","currency":"Sri Lankan rupee","codeCurrency":"LKR","codeCountry":"lk"},{"city":"Matara","lat":"5.949","lon":"80.5428","country":"Sri Lanka","currency":"Sri Lankan rupee","codeCurrency":"LKR","codeCountry":"lk"},{"city":"Sri Jawewardenepura Kotte","lat":"6.9","lon":"79.95","country":"Sri Lanka","currency":"Sri Lankan rupee","codeCurrency":"LKR","codeCountry":"lk"},{"city":"Moratuwa","lat":"6.7804","lon":"79.88","country":"Sri Lanka","currency":"Sri Lankan rupee","codeCurrency":"LKR","codeCountry":"lk"},{"city":"Anuradhapura","lat":"8.35","lon":"80.3833","country":"Sri Lanka","currency":"Sri Lankan rupee","codeCurrency":"LKR","codeCountry":"lk"},{"city":"Galle","lat":"6.03","lon":"80.24","country":"Sri Lanka","currency":"Sri Lankan rupee","codeCurrency":"LKR","codeCountry":"lk"},{"city":"Puttalan","lat":"8.033","lon":"79.826","country":"Sri Lanka","currency":"Sri Lankan rupee","codeCurrency":"LKR","codeCountry":"lk"},{"city":"Kandy","lat":"7.28","lon":"80.67","country":"Sri Lanka","currency":"Sri Lankan rupee","codeCurrency":"LKR","codeCountry":"lk"},{"city":"Badulla","lat":"6.9837","lon":"81.0499","country":"Sri Lanka","currency":"Sri Lankan rupee","codeCurrency":"LKR","codeCountry":"lk"},{"city":"Trincomalee","lat":"8.569","lon":"81.233","country":"Sri Lanka","currency":"Sri Lankan rupee","codeCurrency":"LKR","codeCountry":"lk"},{"city":"Kilinochchi","lat":"9.4004","lon":"80.3999","country":"Sri Lanka","currency":"Sri Lankan rupee","codeCurrency":"LKR","codeCountry":"lk"},{"city":"Batticaloa","lat":"7.717","lon":"81.7","country":"Sri Lanka","currency":"Sri Lankan rupee","codeCurrency":"LKR","codeCountry":"lk"},{"city":"Jaffna","lat":"9.675","lon":"80.005","country":"Sri Lanka","currency":"Sri Lankan rupee","codeCurrency":"LKR","codeCountry":"lk"},{"city":"Bopolu","lat":"7.0667","lon":"-10.4875","country":"Liberia","currency":"Liberian dollar","codeCurrency":"LRD","codeCountry":"lr"},{"city":"Voinjama","lat":"8.4167","lon":"-9.75","country":"Liberia","currency":"Liberian dollar","codeCurrency":"LRD","codeCountry":"lr"},{"city":"Robertsport","lat":"6.7533","lon":"-11.3686","country":"Liberia","currency":"Liberian dollar","codeCurrency":"LRD","codeCountry":"lr"},{"city":"Buchanan","lat":"5.9161","lon":"-10.0525","country":"Liberia","currency":"Liberian dollar","codeCurrency":"LRD","codeCountry":"lr"},{"city":"Monrovia","lat":"6.3106","lon":"-10.8048","country":"Liberia","currency":"Liberian dollar","codeCurrency":"LRD","codeCountry":"lr"},{"city":"Tubmanburg","lat":"6.8706","lon":"-10.8211","country":"Liberia","currency":"Liberian dollar","codeCurrency":"LRD","codeCountry":"lr"},{"city":"Buchanan","lat":"5.8811","lon":"-10.0447","country":"Liberia","currency":"Liberian dollar","codeCurrency":"LRD","codeCountry":"lr"},{"city":"Zwedru","lat":"6.0704","lon":"-8.13","country":"Liberia","currency":"Liberian dollar","codeCurrency":"LRD","codeCountry":"lr"},{"city":"Barclayville","lat":"4.8","lon":"-8.1667","country":"Liberia","currency":"Liberian dollar","codeCurrency":"LRD","codeCountry":"lr"},{"city":"Rivercess","lat":"5.465","lon":"-9.578","country":"Liberia","currency":"Liberian dollar","codeCurrency":"LRD","codeCountry":"lr"},{"city":"Fish Town","lat":"5.1974","lon":"-7.8758","country":"Liberia","currency":"Liberian dollar","codeCurrency":"LRD","codeCountry":"lr"},{"city":"Gbarnga","lat":"7.0104","lon":"-9.49","country":"Liberia","currency":"Liberian dollar","codeCurrency":"LRD","codeCountry":"lr"},{"city":"Kakata","lat":"6.526","lon":"-10.349","country":"Liberia","currency":"Liberian dollar","codeCurrency":"LRD","codeCountry":"lr"},{"city":"Sanniquellie","lat":"7.371","lon":"-8.685","country":"Liberia","currency":"Liberian dollar","codeCurrency":"LRD","codeCountry":"lr"},{"city":"Greenville","lat":"5.0111","lon":"-9.0388","country":"Liberia","currency":"Liberian dollar","codeCurrency":"LRD","codeCountry":"lr"},{"city":"Bensonville","lat":"6.4333","lon":"-10.6","country":"Liberia","currency":"Liberian dollar","codeCurrency":"LRD","codeCountry":"lr"},{"city":"Harper","lat":"4.3754","lon":"-7.717","country":"Liberia","currency":"Liberian dollar","codeCurrency":"LRD","codeCountry":"lr"},{"city":"Maseru","lat":"-29.3167","lon":"27.4833","country":"Lesotho","currency":"Lesotho loti","codeCurrency":"LSL","codeCountry":"ls"},{"city":"Mokhotlong","lat":"-29.291","lon":"29.078","country":"Lesotho","currency":"Lesotho loti","codeCurrency":"LSL","codeCountry":"ls"},{"city":"Thaba-Tseka","lat":"-29.522","lon":"28.6084","country":"Lesotho","currency":"Lesotho loti","codeCurrency":"LSL","codeCountry":"ls"},{"city":"Moyeni","lat":"-30.411","lon":"27.716","country":"Lesotho","currency":"Lesotho loti","codeCurrency":"LSL","codeCountry":"ls"},{"city":"Qacha’s Nek","lat":"-30.1154","lon":"28.6894","country":"Lesotho","currency":"Lesotho loti","codeCurrency":"LSL","codeCountry":"ls"},{"city":"Mafetang","lat":"-29.8166","lon":"27.25","country":"Lesotho","currency":"Lesotho loti","codeCurrency":"LSL","codeCountry":"ls"},{"city":"Hlotse","lat":"-28.878","lon":"28.056","country":"Lesotho","currency":"Lesotho loti","codeCurrency":"LSL","codeCountry":"ls"},{"city":"Teyateyaneng","lat":"-29.153","lon":"27.753","country":"Lesotho","currency":"Lesotho loti","codeCurrency":"LSL","codeCountry":"ls"},{"city":"Mohales Hoek","lat":"-30.159","lon":"27.48","country":"Lesotho","currency":"Lesotho loti","codeCurrency":"LSL","codeCountry":"ls"},{"city":"Butha-Buthe","lat":"-28.75","lon":"28.25","country":"Lesotho","currency":"Lesotho loti","codeCurrency":"LSL","codeCountry":"ls"},{"city":"Klaipėda","lat":"55.7204","lon":"21.1199","country":"Lithuania","currency":"Euro","codeCurrency":"EUR","codeCountry":"lt"},{"city":"Palanga","lat":"55.9203","lon":"21.071","country":"Lithuania","currency":"Euro","codeCurrency":"EUR","codeCountry":"lt"},{"city":"Nida","lat":"55.3086","lon":"20.9965","country":"Lithuania","currency":"Euro","codeCurrency":"EUR","codeCountry":"lt"},{"city":"Kretinga","lat":"55.8888","lon":"21.2445","country":"Lithuania","currency":"Euro","codeCurrency":"EUR","codeCountry":"lt"},{"city":"Tauragė","lat":"55.2522","lon":"22.2897","country":"Lithuania","currency":"Euro","codeCurrency":"EUR","codeCountry":"lt"},{"city":"Šilutė","lat":"55.3453","lon":"21.4733","country":"Lithuania","currency":"Euro","codeCurrency":"EUR","codeCountry":"lt"},{"city":"Rietavas","lat":"55.7271","lon":"21.9234","country":"Lithuania","currency":"Euro","codeCurrency":"EUR","codeCountry":"lt"},{"city":"Plungė","lat":"55.9077","lon":"21.8456","country":"Lithuania","currency":"Euro","codeCurrency":"EUR","codeCountry":"lt"},{"city":"Šilalė","lat":"55.4898","lon":"22.1869","country":"Lithuania","currency":"Euro","codeCurrency":"EUR","codeCountry":"lt"},{"city":"Visaginas","lat":"55.5968","lon":"26.4398","country":"Lithuania","currency":"Euro","codeCurrency":"EUR","codeCountry":"lt"},{"city":"Zarasai","lat":"55.7322","lon":"26.2512","country":"Lithuania","currency":"Euro","codeCurrency":"EUR","codeCountry":"lt"},{"city":"Ignalina","lat":"55.3406","lon":"26.1605","country":"Lithuania","currency":"Euro","codeCurrency":"EUR","codeCountry":"lt"},{"city":"Utena","lat":"55.4976","lon":"25.5992","country":"Lithuania","currency":"Euro","codeCurrency":"EUR","codeCountry":"lt"},{"city":"Švenčionys","lat":"55.133","lon":"26.1595","country":"Lithuania","currency":"Euro","codeCurrency":"EUR","codeCountry":"lt"},{"city":"Rokiškis","lat":"55.9587","lon":"25.5947","country":"Lithuania","currency":"Euro","codeCurrency":"EUR","codeCountry":"lt"},{"city":"Molėtai","lat":"55.2247","lon":"25.4169","country":"Lithuania","currency":"Euro","codeCurrency":"EUR","codeCountry":"lt"},{"city":"Šalčininkai","lat":"54.3086","lon":"25.3868","country":"Lithuania","currency":"Euro","codeCurrency":"EUR","codeCountry":"lt"},{"city":"Vilnius","lat":"54.6834","lon":"25.3166","country":"Lithuania","currency":"Euro","codeCurrency":"EUR","codeCountry":"lt"},{"city":"Kupiškis","lat":"55.8401","lon":"24.9803","country":"Lithuania","currency":"Euro","codeCurrency":"EUR","codeCountry":"lt"},{"city":"Trakai","lat":"54.6399","lon":"24.936","country":"Lithuania","currency":"Euro","codeCurrency":"EUR","codeCountry":"lt"},{"city":"Biržai","lat":"56.1986","lon":"24.7521","country":"Lithuania","currency":"Euro","codeCurrency":"EUR","codeCountry":"lt"},{"city":"Anykščiai","lat":"55.5246","lon":"25.1066","country":"Lithuania","currency":"Euro","codeCurrency":"EUR","codeCountry":"lt"},{"city":"Telšiai","lat":"55.9831","lon":"22.2343","country":"Lithuania","currency":"Euro","codeCurrency":"EUR","codeCountry":"lt"},{"city":"Kelmė","lat":"55.6301","lon":"22.9349","country":"Lithuania","currency":"Euro","codeCurrency":"EUR","codeCountry":"lt"},{"city":"Marijampolė","lat":"54.5599","lon":"23.3541","country":"Lithuania","currency":"Euro","codeCurrency":"EUR","codeCountry":"lt"},{"city":"Lazdijai","lat":"54.2333","lon":"23.5147","country":"Lithuania","currency":"Euro","codeCurrency":"EUR","codeCountry":"lt"},{"city":"Šakiai","lat":"54.9534","lon":"23.0478","country":"Lithuania","currency":"Euro","codeCurrency":"EUR","codeCountry":"lt"},{"city":"Radviliškis","lat":"55.8111","lon":"23.5411","country":"Lithuania","currency":"Euro","codeCurrency":"EUR","codeCountry":"lt"},{"city":"Šiauliai","lat":"55.9386","lon":"23.325","country":"Lithuania","currency":"Euro","codeCurrency":"EUR","codeCountry":"lt"},{"city":"Birštonas","lat":"54.6048","lon":"24.0311","country":"Lithuania","currency":"Euro","codeCurrency":"EUR","codeCountry":"lt"},{"city":"Druskininkai","lat":"54.0157","lon":"23.987","country":"Lithuania","currency":"Euro","codeCurrency":"EUR","codeCountry":"lt"},{"city":"Kėdainiai","lat":"55.2878","lon":"23.9727","country":"Lithuania","currency":"Euro","codeCurrency":"EUR","codeCountry":"lt"},{"city":"Alytus","lat":"54.3964","lon":"24.0414","country":"Lithuania","currency":"Euro","codeCurrency":"EUR","codeCountry":"lt"},{"city":"Prienai","lat":"54.636","lon":"23.9458","country":"Lithuania","currency":"Euro","codeCurrency":"EUR","codeCountry":"lt"},{"city":"Elektrėnai","lat":"54.7863","lon":"24.6626","country":"Lithuania","currency":"Euro","codeCurrency":"EUR","codeCountry":"lt"},{"city":"Kaunas","lat":"54.9504","lon":"23.88","country":"Lithuania","currency":"Euro","codeCurrency":"EUR","codeCountry":"lt"},{"city":"Jonava","lat":"55.0801","lon":"24.2754","country":"Lithuania","currency":"Euro","codeCurrency":"EUR","codeCountry":"lt"},{"city":"Kaišiadorys","lat":"54.8653","lon":"24.4682","country":"Lithuania","currency":"Euro","codeCurrency":"EUR","codeCountry":"lt"},{"city":"Panevežys","lat":"55.74","lon":"24.37","country":"Lithuania","currency":"Euro","codeCurrency":"EUR","codeCountry":"lt"},{"city":"Joniškis","lat":"56.2394","lon":"23.6154","country":"Lithuania","currency":"Euro","codeCurrency":"EUR","codeCountry":"lt"},{"city":"Kazlų Rūda","lat":"54.7497","lon":"23.495","country":"Lithuania","currency":"Euro","codeCurrency":"EUR","codeCountry":"lt"},{"city":"Vilkaviškis","lat":"54.648","lon":"23.0305","country":"Lithuania","currency":"Euro","codeCurrency":"EUR","codeCountry":"lt"},{"city":"Pasvalys","lat":"56.0625","lon":"24.3997","country":"Lithuania","currency":"Euro","codeCurrency":"EUR","codeCountry":"lt"},{"city":"Pakruojis","lat":"55.9789","lon":"23.8551","country":"Lithuania","currency":"Euro","codeCurrency":"EUR","codeCountry":"lt"},{"city":"Raseiniai","lat":"55.3797","lon":"23.1239","country":"Lithuania","currency":"Euro","codeCurrency":"EUR","codeCountry":"lt"},{"city":"Pagėgiai","lat":"55.1379","lon":"21.9138","country":"Lithuania","currency":"Euro","codeCurrency":"EUR","codeCountry":"lt"},{"city":"Jurbarkas","lat":"55.0756","lon":"22.7642","country":"Lithuania","currency":"Euro","codeCurrency":"EUR","codeCountry":"lt"},{"city":"Kalvarija","lat":"54.4172","lon":"23.2283","country":"Lithuania","currency":"Euro","codeCurrency":"EUR","codeCountry":"lt"},{"city":"Širvintos","lat":"55.044","lon":"24.9545","country":"Lithuania","currency":"Euro","codeCurrency":"EUR","codeCountry":"lt"},{"city":"Skuodas","lat":"56.2706","lon":"21.5321","country":"Lithuania","currency":"Euro","codeCurrency":"EUR","codeCountry":"lt"},{"city":"Mažeikiai","lat":"56.3122","lon":"22.3265","country":"Lithuania","currency":"Euro","codeCurrency":"EUR","codeCountry":"lt"},{"city":"Akmenė","lat":"56.25","lon":"22.75","country":"Lithuania","currency":"Euro","codeCurrency":"EUR","codeCountry":"lt"},{"city":"Ukmergė","lat":"55.2494","lon":"24.7636","country":"Lithuania","currency":"Euro","codeCurrency":"EUR","codeCountry":"lt"},{"city":"Varėna","lat":"54.2155","lon":"24.5754","country":"Lithuania","currency":"Euro","codeCurrency":"EUR","codeCountry":"lt"},{"city":"Capellen","lat":"49.645","lon":"5.9908","country":"Luxembourg","currency":"Euro","codeCurrency":"EUR","codeCountry":"lu"},{"city":"Esch-sur-Alzette","lat":"49.4958","lon":"5.9806","country":"Luxembourg","currency":"Euro","codeCurrency":"EUR","codeCountry":"lu"},{"city":"Remich","lat":"49.545","lon":"6.3669","country":"Luxembourg","currency":"Euro","codeCurrency":"EUR","codeCountry":"lu"},{"city":"Echternach","lat":"49.8056","lon":"6.4222","country":"Luxembourg","currency":"Euro","codeCurrency":"EUR","codeCountry":"lu"},{"city":"Mersch","lat":"49.7489","lon":"6.1061","country":"Luxembourg","currency":"Euro","codeCurrency":"EUR","codeCountry":"lu"},{"city":"Redange-sur-Attert","lat":"49.7656","lon":"5.8908","country":"Luxembourg","currency":"Euro","codeCurrency":"EUR","codeCountry":"lu"},{"city":"Vianden","lat":"49.935","lon":"6.2089","country":"Luxembourg","currency":"Euro","codeCurrency":"EUR","codeCountry":"lu"},{"city":"Wiltz","lat":"49.9689","lon":"5.9319","country":"Luxembourg","currency":"Euro","codeCurrency":"EUR","codeCountry":"lu"},{"city":"Clervaux","lat":"50.0547","lon":"6.0314","country":"Luxembourg","currency":"Euro","codeCurrency":"EUR","codeCountry":"lu"},{"city":"Diekirch","lat":"49.8833","lon":"6.1667","country":"Luxembourg","currency":"Euro","codeCurrency":"EUR","codeCountry":"lu"},{"city":"Grevenmacher","lat":"49.7","lon":"6.3333","country":"Luxembourg","currency":"Euro","codeCurrency":"EUR","codeCountry":"lu"},{"city":"Luxembourg","lat":"49.6117","lon":"6.13","country":"Luxembourg","currency":"Euro","codeCurrency":"EUR","codeCountry":"lu"},{"city":"Auce","lat":"56.4611","lon":"22.9028","country":"Latvia","currency":"Euro","codeCurrency":"EUR","codeCountry":"lv"},{"city":"Daugavpils","lat":"55.88","lon":"26.51","country":"Latvia","currency":"Euro","codeCurrency":"EUR","codeCountry":"lv"},{"city":"Jēkabpils","lat":"56.4833","lon":"25.85","country":"Latvia","currency":"Euro","codeCurrency":"EUR","codeCountry":"lv"},{"city":"Salacgrīva","lat":"57.7531","lon":"24.359","country":"Latvia","currency":"Euro","codeCurrency":"EUR","codeCountry":"lv"},{"city":"Ventspils","lat":"57.3899","lon":"21.5606","country":"Latvia","currency":"Euro","codeCurrency":"EUR","codeCountry":"lv"},{"city":"Dundaga","lat":"57.505","lon":"22.3504","country":"Latvia","currency":"Euro","codeCurrency":"EUR","codeCountry":"lv"},{"city":"Jaunjelgava","lat":"56.6132","lon":"25.0832","country":"Latvia","currency":"Euro","codeCurrency":"EUR","codeCountry":"lv"},{"city":"Nereta","lat":"56.2044","lon":"25.3077","country":"Latvia","currency":"Euro","codeCurrency":"EUR","codeCountry":"lv"},{"city":"Alsunga","lat":"56.9801","lon":"21.564","country":"Latvia","currency":"Euro","codeCurrency":"EUR","codeCountry":"lv"},{"city":"Kuldīga","lat":"56.969","lon":"21.968","country":"Latvia","currency":"Euro","codeCurrency":"EUR","codeCountry":"lv"},{"city":"Pāvilosta","lat":"56.8898","lon":"21.1817","country":"Latvia","currency":"Euro","codeCurrency":"EUR","codeCountry":"lv"},{"city":"Piņķi","lat":"56.9419","lon":"23.9137","country":"Latvia","currency":"Euro","codeCurrency":"EUR","codeCountry":"lv"},{"city":"Ādaži","lat":"57.0705","lon":"24.3371","country":"Latvia","currency":"Euro","codeCurrency":"EUR","codeCountry":"lv"},{"city":"Kandava","lat":"57.0389","lon":"22.7724","country":"Latvia","currency":"Euro","codeCurrency":"EUR","codeCountry":"lv"},{"city":"Roja","lat":"57.5015","lon":"22.8088","country":"Latvia","currency":"Euro","codeCurrency":"EUR","codeCountry":"lv"},{"city":"Carnikava","lat":"57.1293","lon":"24.2842","country":"Latvia","currency":"Euro","codeCurrency":"EUR","codeCountry":"lv"},{"city":"Garkalne","lat":"57.0449","lon":"24.4195","country":"Latvia","currency":"Euro","codeCurrency":"EUR","codeCountry":"lv"},{"city":"Saulkrasti","lat":"57.2599","lon":"24.4189","country":"Latvia","currency":"Euro","codeCurrency":"EUR","codeCountry":"lv"},{"city":"Smārde","lat":"56.9533","lon":"23.3387","country":"Latvia","currency":"Euro","codeCurrency":"EUR","codeCountry":"lv"},{"city":"Mērsrags","lat":"57.3364","lon":"23.1235","country":"Latvia","currency":"Euro","codeCurrency":"EUR","codeCountry":"lv"},{"city":"Talsi","lat":"57.2465","lon":"22.5876","country":"Latvia","currency":"Euro","codeCurrency":"EUR","codeCountry":"lv"},{"city":"Jūrmala","lat":"56.9567","lon":"23.7233","country":"Latvia","currency":"Euro","codeCurrency":"EUR","codeCountry":"lv"},{"city":"Mārupe","lat":"56.9032","lon":"24.0467","country":"Latvia","currency":"Euro","codeCurrency":"EUR","codeCountry":"lv"},{"city":"Ulbroka","lat":"56.9363","lon":"24.3039","country":"Latvia","currency":"Euro","codeCurrency":"EUR","codeCountry":"lv"},{"city":"Zilupe","lat":"56.386","lon":"28.1218","country":"Latvia","currency":"Euro","codeCurrency":"EUR","codeCountry":"lv"},{"city":"Ludza","lat":"56.5396","lon":"27.7189","country":"Latvia","currency":"Euro","codeCurrency":"EUR","codeCountry":"lv"},{"city":"Dagda","lat":"56.0961","lon":"27.5328","country":"Latvia","currency":"Euro","codeCurrency":"EUR","codeCountry":"lv"},{"city":"Baltinava","lat":"56.9439","lon":"27.644","country":"Latvia","currency":"Euro","codeCurrency":"EUR","codeCountry":"lv"},{"city":"Cibla","lat":"56.5498","lon":"27.8837","country":"Latvia","currency":"Euro","codeCurrency":"EUR","codeCountry":"lv"},{"city":"Kārsava","lat":"56.7874","lon":"27.6732","country":"Latvia","currency":"Euro","codeCurrency":"EUR","codeCountry":"lv"},{"city":"Riga","lat":"56.95","lon":"24.1","country":"Latvia","currency":"Euro","codeCurrency":"EUR","codeCountry":"lv"},{"city":"Krāslava","lat":"55.8969","lon":"27.172","country":"Latvia","currency":"Euro","codeCurrency":"EUR","codeCountry":"lv"},{"city":"Limbaži","lat":"57.513","lon":"24.724","country":"Latvia","currency":"Euro","codeCurrency":"EUR","codeCountry":"lv"},{"city":"Preiļi","lat":"56.294","lon":"26.7248","country":"Latvia","currency":"Euro","codeCurrency":"EUR","codeCountry":"lv"},{"city":"Vecvārkava","lat":"56.1984","lon":"26.5081","country":"Latvia","currency":"Euro","codeCurrency":"EUR","codeCountry":"lv"},{"city":"Ilūkste","lat":"55.9779","lon":"26.2978","country":"Latvia","currency":"Euro","codeCurrency":"EUR","codeCountry":"lv"},{"city":"Nīca","lat":"56.3456","lon":"21.0646","country":"Latvia","currency":"Euro","codeCurrency":"EUR","codeCountry":"lv"},{"city":"Bauska","lat":"56.4079","lon":"24.1944","country":"Latvia","currency":"Euro","codeCurrency":"EUR","codeCountry":"lv"},{"city":"Viļaka","lat":"57.1843","lon":"27.6719","country":"Latvia","currency":"Euro","codeCurrency":"EUR","codeCountry":"lv"},{"city":"Līvāni","lat":"56.3567","lon":"26.1761","country":"Latvia","currency":"Euro","codeCurrency":"EUR","codeCountry":"lv"},{"city":"Alūksne","lat":"57.4216","lon":"27.0466","country":"Latvia","currency":"Euro","codeCurrency":"EUR","codeCountry":"lv"},{"city":"Jaunpils","lat":"56.7314","lon":"23.0125","country":"Latvia","currency":"Euro","codeCurrency":"EUR","codeCountry":"lv"},{"city":"Brocēni","lat":"56.6789","lon":"22.5694","country":"Latvia","currency":"Euro","codeCurrency":"EUR","codeCountry":"lv"},{"city":"Rugāji","lat":"57.0033","lon":"27.1337","country":"Latvia","currency":"Euro","codeCurrency":"EUR","codeCountry":"lv"},{"city":"Riebiņi","lat":"56.3403","lon":"26.7999","country":"Latvia","currency":"Euro","codeCurrency":"EUR","codeCountry":"lv"},{"city":"Viļāni","lat":"56.5505","lon":"26.9298","country":"Latvia","currency":"Euro","codeCurrency":"EUR","codeCountry":"lv"},{"city":"Varakļāni","lat":"56.6091","lon":"26.7547","country":"Latvia","currency":"Euro","codeCurrency":"EUR","codeCountry":"lv"},{"city":"Ape","lat":"57.5394","lon":"26.694","country":"Latvia","currency":"Euro","codeCurrency":"EUR","codeCountry":"lv"},{"city":"Madona","lat":"56.851","lon":"26.2184","country":"Latvia","currency":"Euro","codeCurrency":"EUR","codeCountry":"lv"},{"city":"Jaunpiebalga","lat":"57.1775","lon":"26.0284","country":"Latvia","currency":"Euro","codeCurrency":"EUR","codeCountry":"lv"},{"city":"Lubāna","lat":"56.9043","lon":"26.7161","country":"Latvia","currency":"Euro","codeCurrency":"EUR","codeCountry":"lv"},{"city":"Gulbene","lat":"57.1734","lon":"26.7527","country":"Latvia","currency":"Euro","codeCurrency":"EUR","codeCountry":"lv"},{"city":"Balvi","lat":"57.1287","lon":"27.27","country":"Latvia","currency":"Euro","codeCurrency":"EUR","codeCountry":"lv"},{"city":"Aknīste","lat":"56.1615","lon":"25.7482","country":"Latvia","currency":"Euro","codeCurrency":"EUR","codeCountry":"lv"},{"city":"Viesīte","lat":"56.3465","lon":"25.5581","country":"Latvia","currency":"Euro","codeCurrency":"EUR","codeCountry":"lv"},{"city":"Cesvaine","lat":"56.9675","lon":"26.3076","country":"Latvia","currency":"Euro","codeCurrency":"EUR","codeCountry":"lv"},{"city":"Ķegums","lat":"56.7455","lon":"24.725","country":"Latvia","currency":"Euro","codeCurrency":"EUR","codeCountry":"lv"},{"city":"Vecpiebalga","lat":"57.0618","lon":"25.8179","country":"Latvia","currency":"Euro","codeCurrency":"EUR","codeCountry":"lv"},{"city":"Smiltene","lat":"57.4242","lon":"25.9017","country":"Latvia","currency":"Euro","codeCurrency":"EUR","codeCountry":"lv"},{"city":"Drabeši","lat":"57.2433","lon":"25.2803","country":"Latvia","currency":"Euro","codeCurrency":"EUR","codeCountry":"lv"},{"city":"Cēsis","lat":"57.3091","lon":"25.2761","country":"Latvia","currency":"Euro","codeCurrency":"EUR","codeCountry":"lv"},{"city":"Ērgļi","lat":"56.8988","lon":"25.6429","country":"Latvia","currency":"Euro","codeCurrency":"EUR","codeCountry":"lv"},{"city":"Valka","lat":"57.7767","lon":"26.0118","country":"Latvia","currency":"Euro","codeCurrency":"EUR","codeCountry":"lv"},{"city":"Grobiņa","lat":"56.5358","lon":"21.1747","country":"Latvia","currency":"Euro","codeCurrency":"EUR","codeCountry":"lv"},{"city":"Strenči","lat":"57.6269","lon":"25.6919","country":"Latvia","currency":"Euro","codeCurrency":"EUR","codeCountry":"lv"},{"city":"Mūrmuiža","lat":"57.4731","lon":"25.4917","country":"Latvia","currency":"Euro","codeCurrency":"EUR","codeCountry":"lv"},{"city":"Mazsalaca","lat":"57.8619","lon":"25.0547","country":"Latvia","currency":"Euro","codeCurrency":"EUR","codeCountry":"lv"},{"city":"Aloja","lat":"57.7672","lon":"24.8774","country":"Latvia","currency":"Euro","codeCurrency":"EUR","codeCountry":"lv"},{"city":"Burtnieki","lat":"57.6949","lon":"25.275","country":"Latvia","currency":"Euro","codeCurrency":"EUR","codeCountry":"lv"},{"city":"Koknese","lat":"56.6516","lon":"25.4364","country":"Latvia","currency":"Euro","codeCurrency":"EUR","codeCountry":"lv"},{"city":"Aizkraukle","lat":"56.6029","lon":"25.2636","country":"Latvia","currency":"Euro","codeCurrency":"EUR","codeCountry":"lv"},{"city":"Skrīveri","lat":"56.6485","lon":"25.1195","country":"Latvia","currency":"Euro","codeCurrency":"EUR","codeCountry":"lv"},{"city":"Baldone","lat":"56.7445","lon":"24.4008","country":"Latvia","currency":"Euro","codeCurrency":"EUR","codeCountry":"lv"},{"city":"Vecumnieki","lat":"56.6061","lon":"24.5223","country":"Latvia","currency":"Euro","codeCurrency":"EUR","codeCountry":"lv"},{"city":"Sala","lat":"56.5047","lon":"25.7618","country":"Latvia","currency":"Euro","codeCurrency":"EUR","codeCountry":"lv"},{"city":"Pļaviņas","lat":"56.6177","lon":"25.7194","country":"Latvia","currency":"Euro","codeCurrency":"EUR","codeCountry":"lv"},{"city":"Liepaga","lat":"56.51","lon":"21.01","country":"Latvia","currency":"Euro","codeCurrency":"EUR","codeCountry":"lv"},{"city":"Rūjiena","lat":"57.8961","lon":"25.3342","country":"Latvia","currency":"Euro","codeCurrency":"EUR","codeCountry":"lv"},{"city":"Naukšēni","lat":"57.8842","lon":"25.458","country":"Latvia","currency":"Euro","codeCurrency":"EUR","codeCountry":"lv"},{"city":"Lieģi","lat":"56.5797","lon":"21.3338","country":"Latvia","currency":"Euro","codeCurrency":"EUR","codeCountry":"lv"},{"city":"Rauna","lat":"57.3337","lon":"25.6085","country":"Latvia","currency":"Euro","codeCurrency":"EUR","codeCountry":"lv"},{"city":"Aizpute","lat":"56.7211","lon":"21.6016","country":"Latvia","currency":"Euro","codeCurrency":"EUR","codeCountry":"lv"},{"city":"Kocēni","lat":"57.5198","lon":"25.3404","country":"Latvia","currency":"Euro","codeCurrency":"EUR","codeCountry":"lv"},{"city":"Valmiera","lat":"57.5387","lon":"25.4257","country":"Latvia","currency":"Euro","codeCurrency":"EUR","codeCountry":"lv"},{"city":"Sigulda","lat":"57.1538","lon":"24.8595","country":"Latvia","currency":"Euro","codeCurrency":"EUR","codeCountry":"lv"},{"city":"Priekuļi","lat":"57.3115","lon":"25.3571","country":"Latvia","currency":"Euro","codeCurrency":"EUR","codeCountry":"lv"},{"city":"Ogre","lat":"56.8113","lon":"24.6113","country":"Latvia","currency":"Euro","codeCurrency":"EUR","codeCountry":"lv"},{"city":"Ragana","lat":"57.1821","lon":"24.7056","country":"Latvia","currency":"Euro","codeCurrency":"EUR","codeCountry":"lv"},{"city":"Loja","lat":"57.1534","lon":"24.6433","country":"Latvia","currency":"Euro","codeCurrency":"EUR","codeCountry":"lv"},{"city":"Ropaži","lat":"56.9747","lon":"24.6329","country":"Latvia","currency":"Euro","codeCurrency":"EUR","codeCountry":"lv"},{"city":"Priekule","lat":"56.4458","lon":"21.5939","country":"Latvia","currency":"Euro","codeCurrency":"EUR","codeCountry":"lv"},{"city":"Iecava","lat":"56.5977","lon":"24.2076","country":"Latvia","currency":"Euro","codeCurrency":"EUR","codeCountry":"lv"},{"city":"Rucava","lat":"56.164","lon":"21.1627","country":"Latvia","currency":"Euro","codeCurrency":"EUR","codeCountry":"lv"},{"city":"Pilsrundāle","lat":"56.4181","lon":"24.0162","country":"Latvia","currency":"Euro","codeCurrency":"EUR","codeCountry":"lv"},{"city":"Salaspils","lat":"56.861","lon":"24.3498","country":"Latvia","currency":"Euro","codeCurrency":"EUR","codeCountry":"lv"},{"city":"Ikšķile","lat":"56.834","lon":"24.4968","country":"Latvia","currency":"Euro","codeCurrency":"EUR","codeCountry":"lv"},{"city":"Lielvārde","lat":"56.7213","lon":"24.8062","country":"Latvia","currency":"Euro","codeCurrency":"EUR","codeCountry":"lv"},{"city":"Inčukalns","lat":"57.0987","lon":"24.6863","country":"Latvia","currency":"Euro","codeCurrency":"EUR","codeCountry":"lv"},{"city":"Mālpils","lat":"57.0101","lon":"24.9578","country":"Latvia","currency":"Euro","codeCurrency":"EUR","codeCountry":"lv"},{"city":"Olaine","lat":"56.7947","lon":"23.9358","country":"Latvia","currency":"Euro","codeCurrency":"EUR","codeCountry":"lv"},{"city":"Ķekava","lat":"56.8296","lon":"24.2318","country":"Latvia","currency":"Euro","codeCurrency":"EUR","codeCountry":"lv"},{"city":"Līgatne","lat":"57.2379","lon":"25.0436","country":"Latvia","currency":"Euro","codeCurrency":"EUR","codeCountry":"lv"},{"city":"Stalbe","lat":"57.3708","lon":"25.0324","country":"Latvia","currency":"Euro","codeCurrency":"EUR","codeCountry":"lv"},{"city":"Jelgava","lat":"56.6527","lon":"23.7128","country":"Latvia","currency":"Euro","codeCurrency":"EUR","codeCountry":"lv"},{"city":"Skrunda","lat":"56.6775","lon":"22.0165","country":"Latvia","currency":"Euro","codeCurrency":"EUR","codeCountry":"lv"},{"city":"Vaiņode","lat":"56.4185","lon":"21.8541","country":"Latvia","currency":"Euro","codeCurrency":"EUR","codeCountry":"lv"},{"city":"Saldus","lat":"56.6666","lon":"22.4935","country":"Latvia","currency":"Euro","codeCurrency":"EUR","codeCountry":"lv"},{"city":"Tukums","lat":"56.9676","lon":"23.1555","country":"Latvia","currency":"Euro","codeCurrency":"EUR","codeCountry":"lv"},{"city":"Tērvete","lat":"56.4798","lon":"23.3902","country":"Latvia","currency":"Euro","codeCurrency":"EUR","codeCountry":"lv"},{"city":"Dobele","lat":"56.6237","lon":"23.2751","country":"Latvia","currency":"Euro","codeCurrency":"EUR","codeCountry":"lv"},{"city":"Rēzekne","lat":"56.5","lon":"27.3166","country":"Latvia","currency":"Euro","codeCurrency":"EUR","codeCountry":"lv"},{"city":"Aglona","lat":"56.1327","lon":"27.0068","country":"Latvia","currency":"Euro","codeCurrency":"EUR","codeCountry":"lv"},{"city":"Ozolnieki","lat":"56.6899","lon":"23.7761","country":"Latvia","currency":"Euro","codeCurrency":"EUR","codeCountry":"lv"},{"city":"Tripoli","lat":"32.8925","lon":"13.18","country":"Libya","currency":"Libyan dinar","codeCurrency":"LYD"},{"city":"Al ‘Azīzīyah","lat":"32.5319","lon":"13.0175","country":"Libya","currency":"Libyan dinar","codeCurrency":"LYD"},{"city":"Zuwarah","lat":"32.9344","lon":"12.0791","country":"Libya","currency":"Libyan dinar","codeCurrency":"LYD"},{"city":"Al Khums","lat":"32.6604","lon":"14.26","country":"Libya","currency":"Libyan dinar","codeCurrency":"LYD"},{"city":"As Sidr","lat":"30.6704","lon":"18.2666","country":"Libya","currency":"Libyan dinar","codeCurrency":"LYD"},{"city":"Ghadamis","lat":"30.1333","lon":"9.5","country":"Libya","currency":"Libyan dinar","codeCurrency":"LYD"},{"city":"Dirj","lat":"30.1679","lon":"10.4567","country":"Libya","currency":"Libyan dinar","codeCurrency":"LYD"},{"city":"Nalut","lat":"31.8804","lon":"10.97","country":"Libya","currency":"Libyan dinar","codeCurrency":"LYD"},{"city":"Umm al Abid","lat":"27.517","lon":"15.0333","country":"Libya","currency":"Libyan dinar","codeCurrency":"LYD"},{"city":"Sabha","lat":"27.0333","lon":"14.4333","country":"Libya","currency":"Libyan dinar","codeCurrency":"LYD"},{"city":"Birak","lat":"27.5333","lon":"14.2834","country":"Libya","currency":"Libyan dinar","codeCurrency":"LYD"},{"city":"Idrī","lat":"27.4471","lon":"13.0517","country":"Libya","currency":"Libyan dinar","codeCurrency":"LYD"},{"city":"Zillah","lat":"28.5504","lon":"17.5834","country":"Libya","currency":"Libyan dinar","codeCurrency":"LYD"},{"city":"Hun","lat":"29.1167","lon":"15.9333","country":"Libya","currency":"Libyan dinar","codeCurrency":"LYD"},{"city":"Az Zawiyah","lat":"32.7604","lon":"12.72","country":"Libya","currency":"Libyan dinar","codeCurrency":"LYD"},{"city":"Awjilah","lat":"29.108","lon":"21.2869","country":"Libya","currency":"Libyan dinar","codeCurrency":"LYD"},{"city":"El Agheila","lat":"30.257","lon":"19.2","country":"Libya","currency":"Libyan dinar","codeCurrency":"LYD"},{"city":"Maradah","lat":"29.2337","lon":"19.2166","country":"Libya","currency":"Libyan dinar","codeCurrency":"LYD"},{"city":"Ajdabiya","lat":"30.77","lon":"20.22","country":"Libya","currency":"Libyan dinar","codeCurrency":"LYD"},{"city":"Darnah","lat":"32.7648","lon":"22.6391","country":"Libya","currency":"Libyan dinar","codeCurrency":"LYD"},{"city":"Al Jaghbub","lat":"29.7504","lon":"24.5166","country":"Libya","currency":"Libyan dinar","codeCurrency":"LYD"},{"city":"Mizdah","lat":"31.4337","lon":"12.9833","country":"Libya","currency":"Libyan dinar","codeCurrency":"LYD"},{"city":"Gharyan","lat":"32.1704","lon":"13.02","country":"Libya","currency":"Libyan dinar","codeCurrency":"LYD"},{"city":"Tubruq","lat":"32.08","lon":"23.96","country":"Libya","currency":"Libyan dinar","codeCurrency":"LYD"},{"city":"Shahhat","lat":"32.8281","lon":"21.8622","country":"Libya","currency":"Libyan dinar","codeCurrency":"LYD"},{"city":"Tajarhi","lat":"24.3704","lon":"14.4708","country":"Libya","currency":"Libyan dinar","codeCurrency":"LYD"},{"city":"Al Bayda","lat":"32.7604","lon":"21.62","country":"Libya","currency":"Libyan dinar","codeCurrency":"LYD"},{"city":"Ghat","lat":"24.9647","lon":"10.1728","country":"Libya","currency":"Libyan dinar","codeCurrency":"LYD"},{"city":"Tmassah","lat":"26.3666","lon":"15.8","country":"Libya","currency":"Libyan dinar","codeCurrency":"LYD"},{"city":"Marzuq","lat":"25.9044","lon":"13.8972","country":"Libya","currency":"Libyan dinar","codeCurrency":"LYD"},{"city":"Al Marj","lat":"32.5005","lon":"20.83","country":"Libya","currency":"Libyan dinar","codeCurrency":"LYD"},{"city":"Surt","lat":"31.21","lon":"16.59","country":"Libya","currency":"Libyan dinar","codeCurrency":"LYD"},{"city":"Bani Walid","lat":"31.7704","lon":"13.99","country":"Libya","currency":"Libyan dinar","codeCurrency":"LYD"},{"city":"Awbārī","lat":"26.5903","lon":"12.7751","country":"Libya","currency":"Libyan dinar","codeCurrency":"LYD"},{"city":"Al Jawf","lat":"24.2","lon":"23.29","country":"Libya","currency":"Libyan dinar","codeCurrency":"LYD"},{"city":"Al Kufrah","lat":"24.1667","lon":"23.2696","country":"Libya","currency":"Libyan dinar","codeCurrency":"LYD"},{"city":"Qaminis","lat":"31.6606","lon":"20.0155","country":"Libya","currency":"Libyan dinar","codeCurrency":"LYD"},{"city":"Banghazi","lat":"32.1167","lon":"20.0667","country":"Libya","currency":"Libyan dinar","codeCurrency":"LYD"},{"city":"Misratah","lat":"32.38","lon":"15.1","country":"Libya","currency":"Libyan dinar","codeCurrency":"LYD"},{"city":"Kenitra","lat":"34.2704","lon":"-6.58","country":"Morocco","currency":"Moroccan dirham","codeCurrency":"MAD","codeCountry":"ma"},{"city":"Goulimine","lat":"28.98","lon":"-10.07","country":"Morocco","currency":"Moroccan dirham","codeCurrency":"MAD","codeCountry":"ma"},{"city":"Fez","lat":"34.0546","lon":"-5.0004","country":"Morocco","currency":"Moroccan dirham","codeCurrency":"MAD","codeCountry":"ma"},{"city":"Casablanca","lat":"33.6","lon":"-7.6164","country":"Morocco","currency":"Moroccan dirham","codeCurrency":"MAD","codeCountry":"ma"},{"city":"Agadir","lat":"30.44","lon":"-9.62","country":"Morocco","currency":"Moroccan dirham","codeCurrency":"MAD","codeCountry":"ma"},{"city":"Béni Mellal","lat":"32.3373","lon":"-6.3498","country":"Morocco","currency":"Moroccan dirham","codeCurrency":"MAD","codeCountry":"ma"},{"city":"Tangier","lat":"35.7473","lon":"-5.8327","country":"Morocco","currency":"Moroccan dirham","codeCurrency":"MAD","codeCountry":"ma"},{"city":"Settat","lat":"33.0104","lon":"-7.62","country":"Morocco","currency":"Moroccan dirham","codeCurrency":"MAD","codeCountry":"ma"},{"city":"Oujda","lat":"34.69","lon":"-1.91","country":"Morocco","currency":"Moroccan dirham","codeCurrency":"MAD","codeCountry":"ma"},{"city":"Meknes","lat":"33.9004","lon":"-5.56","country":"Morocco","currency":"Moroccan dirham","codeCurrency":"MAD","codeCountry":"ma"},{"city":"Rabat","lat":"34.0253","lon":"-6.8361","country":"Morocco","currency":"Moroccan dirham","codeCurrency":"MAD","codeCountry":"ma"},{"city":"Marrakesh","lat":"31.63","lon":"-8","country":"Morocco","currency":"Moroccan dirham","codeCurrency":"MAD","codeCountry":"ma"},{"city":"El Jadida","lat":"33.2604","lon":"-8.51","country":"Morocco","currency":"Moroccan dirham","codeCurrency":"MAD","codeCountry":"ma"},{"city":"Er Rachidia","lat":"31.9404","lon":"-4.45","country":"Morocco","currency":"Moroccan dirham","codeCurrency":"MAD","codeCountry":"ma"},{"city":"Tan Tan","lat":"28.4304","lon":"-11.1","country":"Morocco","currency":"Moroccan dirham","codeCurrency":"MAD","codeCountry":"ma"},{"city":"Taza","lat":"34.2204","lon":"-4.02","country":"Morocco","currency":"Moroccan dirham","codeCurrency":"MAD","codeCountry":"ma"},{"city":"Larache","lat":"35.2004","lon":"-6.16","country":"Morocco","currency":"Moroccan dirham","codeCurrency":"MAD","codeCountry":"ma"},{"city":"Ksar El Kebir","lat":"35.0204","lon":"-5.91","country":"Morocco","currency":"Moroccan dirham","codeCurrency":"MAD","codeCountry":"ma"},{"city":"Safi","lat":"32.32","lon":"-9.24","country":"Morocco","currency":"Moroccan dirham","codeCurrency":"MAD","codeCountry":"ma"},{"city":"Tiznit","lat":"29.7104","lon":"-9.74","country":"Morocco","currency":"Moroccan dirham","codeCurrency":"MAD","codeCountry":"ma"},{"city":"Ouezzane","lat":"34.8103","lon":"-5.57","country":"Morocco","currency":"Moroccan dirham","codeCurrency":"MAD","codeCountry":"ma"},{"city":"Monaco","lat":"43.7396","lon":"7.4069","country":"Monaco","currency":"Euro","codeCurrency":"EUR","codeCountry":"mc"},{"city":"Leova","lat":"46.4823","lon":"28.253","country":"Moldova","currency":"Moldovan leu","codeCurrency":"MDL"},{"city":"Rezina","lat":"47.7493","lon":"28.9658","country":"Moldova","currency":"Moldovan leu","codeCurrency":"MDL"},{"city":"Căuşeni","lat":"46.6367","lon":"29.4111","country":"Moldova","currency":"Moldovan leu","codeCurrency":"MDL"},{"city":"Rîşcani","lat":"47.9479","lon":"27.5638","country":"Moldova","currency":"Moldovan leu","codeCurrency":"MDL"},{"city":"Sîngerei","lat":"47.6363","lon":"28.143","country":"Moldova","currency":"Moldovan leu","codeCurrency":"MDL"},{"city":"Făleşti","lat":"47.5767","lon":"27.7126","country":"Moldova","currency":"Moldovan leu","codeCurrency":"MDL"},{"city":"Floreşti","lat":"47.8914","lon":"28.2931","country":"Moldova","currency":"Moldovan leu","codeCurrency":"MDL"},{"city":"Şoldăneşti","lat":"47.8161","lon":"28.7972","country":"Moldova","currency":"Moldovan leu","codeCurrency":"MDL"},{"city":"Ştefan Vodă","lat":"46.5129","lon":"29.6619","country":"Moldova","currency":"Moldovan leu","codeCurrency":"MDL"},{"city":"Orhei","lat":"47.3849","lon":"28.8245","country":"Moldova","currency":"Moldovan leu","codeCurrency":"MDL"},{"city":"Comrat","lat":"46.2946","lon":"28.6565","country":"Moldova","currency":"Moldovan leu","codeCurrency":"MDL"},{"city":"Cimişlia","lat":"46.5268","lon":"28.7644","country":"Moldova","currency":"Moldovan leu","codeCurrency":"MDL"},{"city":"Cantemir","lat":"46.2774","lon":"28.2027","country":"Moldova","currency":"Moldovan leu","codeCurrency":"MDL"},{"city":"Basarabeasca","lat":"46.3317","lon":"28.9636","country":"Moldova","currency":"Moldovan leu","codeCurrency":"MDL"},{"city":"Edineţ","lat":"48.1721","lon":"27.3034","country":"Moldova","currency":"Moldovan leu","codeCurrency":"MDL"},{"city":"Ocniţa","lat":"48.3827","lon":"27.4381","country":"Moldova","currency":"Moldovan leu","codeCurrency":"MDL"},{"city":"Drochia","lat":"48.0355","lon":"27.8129","country":"Moldova","currency":"Moldovan leu","codeCurrency":"MDL"},{"city":"Donduşeni","lat":"48.2394","lon":"27.6056","country":"Moldova","currency":"Moldovan leu","codeCurrency":"MDL"},{"city":"Briceni","lat":"48.3629","lon":"27.0779","country":"Moldova","currency":"Moldovan leu","codeCurrency":"MDL"},{"city":"Ialoveni","lat":"46.9435","lon":"28.7823","country":"Moldova","currency":"Moldovan leu","codeCurrency":"MDL"},{"city":"Bălți","lat":"47.7591","lon":"27.9053","country":"Moldova","currency":"Moldovan leu","codeCurrency":"MDL"},{"city":"Criuleni","lat":"47.2131","lon":"29.1593","country":"Moldova","currency":"Moldovan leu","codeCurrency":"MDL"},{"city":"Bender","lat":"46.8316","lon":"29.4777","country":"Moldova","currency":"Moldovan leu","codeCurrency":"MDL"},{"city":"Anenii Noi","lat":"46.8784","lon":"29.2348","country":"Moldova","currency":"Moldovan leu","codeCurrency":"MDL"},{"city":"Cahul","lat":"45.9079","lon":"28.1944","country":"Moldova","currency":"Moldovan leu","codeCurrency":"MDL"},{"city":"Chișinău","lat":"47.005","lon":"28.8577","country":"Moldova","currency":"Moldovan leu","codeCurrency":"MDL"},{"city":"Straşeni","lat":"47.1422","lon":"28.6077","country":"Moldova","currency":"Moldovan leu","codeCurrency":"MDL"},{"city":"Tiraspol","lat":"46.8531","lon":"29.64","country":"Moldova","currency":"Moldovan leu","codeCurrency":"MDL"},{"city":"Teleneşti","lat":"47.5011","lon":"28.3654","country":"Moldova","currency":"Moldovan leu","codeCurrency":"MDL"},{"city":"Taraclia","lat":"45.9027","lon":"28.6682","country":"Moldova","currency":"Moldovan leu","codeCurrency":"MDL"},{"city":"Dubăsari","lat":"47.2631","lon":"29.1608","country":"Moldova","currency":"Moldovan leu","codeCurrency":"MDL"},{"city":"Cocieri","lat":"47.3087","lon":"29.1101","country":"Moldova","currency":"Moldovan leu","codeCurrency":"MDL"},{"city":"Călăraşi","lat":"47.2556","lon":"28.3099","country":"Moldova","currency":"Moldovan leu","codeCurrency":"MDL"},{"city":"Glodeni","lat":"47.7751","lon":"27.5189","country":"Moldova","currency":"Moldovan leu","codeCurrency":"MDL"},{"city":"Hînceşti","lat":"46.8305","lon":"28.5906","country":"Moldova","currency":"Moldovan leu","codeCurrency":"MDL"},{"city":"Nisporeni","lat":"47.0816","lon":"28.1714","country":"Moldova","currency":"Moldovan leu","codeCurrency":"MDL"},{"city":"Soroca","lat":"48.1566","lon":"28.2849","country":"Moldova","currency":"Moldovan leu","codeCurrency":"MDL"},{"city":"Ungheni","lat":"47.2108","lon":"27.8005","country":"Moldova","currency":"Moldovan leu","codeCurrency":"MDL"},{"city":"Berane","lat":"42.8425","lon":"19.8733","country":"Montenegro","currency":"Euro","codeCurrency":"EUR"},{"city":"Plav","lat":"42.5969","lon":"19.9456","country":"Montenegro","currency":"Euro","codeCurrency":"EUR"},{"city":"Andrijevica","lat":"42.7339","lon":"19.7919","country":"Montenegro","currency":"Euro","codeCurrency":"EUR"},{"city":"Petnjica","lat":"42.9089","lon":"19.9644","country":"Montenegro","currency":"Euro","codeCurrency":"EUR"},{"city":"Gusinje","lat":"42.5619","lon":"19.8339","country":"Montenegro","currency":"Euro","codeCurrency":"EUR"},{"city":"Kolašin","lat":"42.8242","lon":"19.5225","country":"Montenegro","currency":"Euro","codeCurrency":"EUR"},{"city":"Podgorica","lat":"42.466","lon":"19.2663","country":"Montenegro","currency":"Euro","codeCurrency":"EUR"},{"city":"Bijelo Polje","lat":"43.0292","lon":"19.7456","country":"Montenegro","currency":"Euro","codeCurrency":"EUR"},{"city":"Bar","lat":"42.0931","lon":"19.1003","country":"Montenegro","currency":"Euro","codeCurrency":"EUR"},{"city":"Budva","lat":"42.2864","lon":"18.84","country":"Montenegro","currency":"Euro","codeCurrency":"EUR"},{"city":"Cetinje","lat":"42.3922","lon":"18.9225","country":"Montenegro","currency":"Euro","codeCurrency":"EUR"},{"city":"Danilovgrad","lat":"42.5472","lon":"19.1053","country":"Montenegro","currency":"Euro","codeCurrency":"EUR"},{"city":"Herceg-Novi","lat":"42.4531","lon":"18.5375","country":"Montenegro","currency":"Euro","codeCurrency":"EUR"},{"city":"Kotor","lat":"42.4258","lon":"18.7719","country":"Montenegro","currency":"Euro","codeCurrency":"EUR"},{"city":"Mojkovac","lat":"42.9639","lon":"19.5825","country":"Montenegro","currency":"Euro","codeCurrency":"EUR"},{"city":"Nikšić","lat":"42.775","lon":"18.9583","country":"Montenegro","currency":"Euro","codeCurrency":"EUR"},{"city":"Plužine","lat":"43.1528","lon":"18.8394","country":"Montenegro","currency":"Euro","codeCurrency":"EUR"},{"city":"Pljevlja","lat":"43.3522","lon":"19.3542","country":"Montenegro","currency":"Euro","codeCurrency":"EUR"},{"city":"Rožaje","lat":"42.8439","lon":"20.1683","country":"Montenegro","currency":"Euro","codeCurrency":"EUR"},{"city":"Šavnik","lat":"42.9564","lon":"19.0967","country":"Montenegro","currency":"Euro","codeCurrency":"EUR"},{"city":"Tivat","lat":"42.4364","lon":"18.6961","country":"Montenegro","currency":"Euro","codeCurrency":"EUR"},{"city":"Ulcinj","lat":"41.9283","lon":"19.2064","country":"Montenegro","currency":"Euro","codeCurrency":"EUR"},{"city":"Žabljak","lat":"43.1547","lon":"19.1219","country":"Montenegro","currency":"Euro","codeCurrency":"EUR"},{"city":"Marigot","lat":"18.0706","lon":"-63.0847","country":"Saint Martin"},{"city":"Antananarivo","lat":"-18.9166","lon":"47.5166","country":"Madagascar","currency":"Malagasy ariary","codeCurrency":"MGA","codeCountry":"mg"},{"city":"Toamasina","lat":"-18.1818","lon":"49.405","country":"Madagascar","currency":"Malagasy ariary","codeCurrency":"MGA","codeCountry":"mg"},{"city":"Antalaha","lat":"-14.8833","lon":"50.2833","country":"Madagascar","currency":"Malagasy ariary","codeCurrency":"MGA","codeCountry":"mg"},{"city":"Maroantsetra","lat":"-15.4333","lon":"49.7333","country":"Madagascar","currency":"Malagasy ariary","codeCurrency":"MGA","codeCountry":"mg"},{"city":"Mandritsara","lat":"-15.8328","lon":"48.8166","country":"Madagascar","currency":"Malagasy ariary","codeCurrency":"MGA","codeCountry":"mg"},{"city":"Besalampy","lat":"-16.7495","lon":"44.4833","country":"Madagascar","currency":"Malagasy ariary","codeCurrency":"MGA","codeCountry":"mg"},{"city":"Marovoay","lat":"-16.0995","lon":"46.6333","country":"Madagascar","currency":"Malagasy ariary","codeCurrency":"MGA","codeCountry":"mg"},{"city":"Andoany","lat":"-13.4","lon":"48.2666","country":"Madagascar","currency":"Malagasy ariary","codeCurrency":"MGA","codeCountry":"mg"},{"city":"Mahajanga","lat":"-15.67","lon":"46.345","country":"Madagascar","currency":"Malagasy ariary","codeCurrency":"MGA","codeCountry":"mg"},{"city":"Ambanja","lat":"-13.6829","lon":"48.45","country":"Madagascar","currency":"Malagasy ariary","codeCurrency":"MGA","codeCountry":"mg"},{"city":"Antsiranana","lat":"-12.2765","lon":"49.3115","country":"Madagascar","currency":"Malagasy ariary","codeCurrency":"MGA","codeCountry":"mg"},{"city":"Miandrivazo","lat":"-19.5162","lon":"45.4666","country":"Madagascar","currency":"Malagasy ariary","codeCurrency":"MGA","codeCountry":"mg"},{"city":"Mananjary","lat":"-21.2167","lon":"48.3333","country":"Madagascar","currency":"Malagasy ariary","codeCurrency":"MGA","codeCountry":"mg"},{"city":"Morombe","lat":"-21.7391","lon":"43.3657","country":"Madagascar","currency":"Malagasy ariary","codeCurrency":"MGA","codeCountry":"mg"},{"city":"Toliara","lat":"-23.3568","lon":"43.69","country":"Madagascar","currency":"Malagasy ariary","codeCurrency":"MGA","codeCountry":"mg"},{"city":"Manja","lat":"-21.4329","lon":"44.3333","country":"Madagascar","currency":"Malagasy ariary","codeCurrency":"MGA","codeCountry":"mg"},{"city":"Fianarantsoa","lat":"-21.4333","lon":"47.0833","country":"Madagascar","currency":"Malagasy ariary","codeCurrency":"MGA","codeCountry":"mg"},{"city":"Androka","lat":"-25.0219","lon":"44.0749","country":"Madagascar","currency":"Malagasy ariary","codeCurrency":"MGA","codeCountry":"mg"},{"city":"Bekiy","lat":"-24.2162","lon":"45.3166","country":"Madagascar","currency":"Malagasy ariary","codeCurrency":"MGA","codeCountry":"mg"},{"city":"Antsirabe","lat":"-19.85","lon":"47.0333","country":"Madagascar","currency":"Malagasy ariary","codeCurrency":"MGA","codeCountry":"mg"},{"city":"Antsohihy","lat":"-14.8661","lon":"47.9834","country":"Madagascar","currency":"Malagasy ariary","codeCurrency":"MGA","codeCountry":"mg"},{"city":"Maintirano","lat":"-18.0666","lon":"44.0167","country":"Madagascar","currency":"Malagasy ariary","codeCurrency":"MGA","codeCountry":"mg"},{"city":"Ambatondrazaka","lat":"-17.8329","lon":"48.4167","country":"Madagascar","currency":"Malagasy ariary","codeCurrency":"MGA","codeCountry":"mg"},{"city":"Farafangana","lat":"-22.8166","lon":"47.8332","country":"Madagascar","currency":"Malagasy ariary","codeCurrency":"MGA","codeCountry":"mg"},{"city":"Ihosy","lat":"-22.3996","lon":"46.1167","country":"Madagascar","currency":"Malagasy ariary","codeCurrency":"MGA","codeCountry":"mg"},{"city":"Morondava","lat":"-20.2833","lon":"44.2833","country":"Madagascar","currency":"Malagasy ariary","codeCurrency":"MGA","codeCountry":"mg"},{"city":"Tôlanaro","lat":"-25.0268","lon":"46.99","country":"Madagascar","currency":"Malagasy ariary","codeCurrency":"MGA","codeCountry":"mg"},{"city":"Sambava","lat":"-14.2662","lon":"50.1666","country":"Madagascar","currency":"Malagasy ariary","codeCurrency":"MGA","codeCountry":"mg"},{"city":"Majuro","lat":"7.103","lon":"171.38","country":"Marshall Islands","currency":"United States dollar","codeCurrency":"USD","codeCountry":"mh"},{"city":"Vevčani","lat":"41.2406","lon":"20.5933","country":"Macedonia","currency":"Macedonian denar","codeCurrency":"MKD"},{"city":"Kočani","lat":"41.9164","lon":"22.4128","country":"Macedonia","currency":"Macedonian denar","codeCurrency":"MKD"},{"city":"Staro Nagoričane","lat":"42.1981","lon":"21.8286","country":"Macedonia","currency":"Macedonian denar","codeCurrency":"MKD"},{"city":"Radoviš","lat":"41.6383","lon":"22.4647","country":"Macedonia","currency":"Macedonian denar","codeCurrency":"MKD"},{"city":"Sopište","lat":"41.9547","lon":"21.4275","country":"Macedonia","currency":"Macedonian denar","codeCurrency":"MKD"},{"city":"Petrovec","lat":"41.9389","lon":"21.615","country":"Macedonia","currency":"Macedonian denar","codeCurrency":"MKD"},{"city":"Bosilovo","lat":"41.4406","lon":"22.7278","country":"Macedonia","currency":"Macedonian denar","codeCurrency":"MKD"},{"city":"Zrnovci","lat":"41.8542","lon":"22.4444","country":"Macedonia","currency":"Macedonian denar","codeCurrency":"MKD"},{"city":"Gradsko","lat":"41.5775","lon":"21.9428","country":"Macedonia","currency":"Macedonian denar","codeCurrency":"MKD"},{"city":"Lipkovo","lat":"42.1564","lon":"21.5853","country":"Macedonia","currency":"Macedonian denar","codeCurrency":"MKD"},{"city":"Lozovo","lat":"41.7839","lon":"21.9056","country":"Macedonia","currency":"Macedonian denar","codeCurrency":"MKD"},{"city":"Plasnica","lat":"41.4672","lon":"21.1231","country":"Macedonia","currency":"Macedonian denar","codeCurrency":"MKD"},{"city":"Aračinovo","lat":"42.0264","lon":"21.5619","country":"Macedonia","currency":"Macedonian denar","codeCurrency":"MKD"},{"city":"Studeničani","lat":"41.9158","lon":"21.5306","country":"Macedonia","currency":"Macedonian denar","codeCurrency":"MKD"},{"city":"Resen","lat":"41.0893","lon":"21.0109","country":"Macedonia","currency":"Macedonian denar","codeCurrency":"MKD"},{"city":"Bogovinje","lat":"41.9236","lon":"20.9136","country":"Macedonia","currency":"Macedonian denar","codeCurrency":"MKD"},{"city":"Vinica","lat":"41.8828","lon":"22.5092","country":"Macedonia","currency":"Macedonian denar","codeCurrency":"MKD"},{"city":"Belčišta","lat":"41.3028","lon":"20.8303","country":"Macedonia","currency":"Macedonian denar","codeCurrency":"MKD"},{"city":"Mogila","lat":"41.1083","lon":"21.3786","country":"Macedonia","currency":"Macedonian denar","codeCurrency":"MKD"},{"city":"Veles","lat":"41.7156","lon":"21.7756","country":"Macedonia","currency":"Macedonian denar","codeCurrency":"MKD"},{"city":"Kavadarci","lat":"41.4331","lon":"22.0119","country":"Macedonia","currency":"Macedonian denar","codeCurrency":"MKD"},{"city":"Kumanovo","lat":"42.1322","lon":"21.7144","country":"Macedonia","currency":"Macedonian denar","codeCurrency":"MKD"},{"city":"Ohrid","lat":"41.1172","lon":"20.8019","country":"Macedonia","currency":"Macedonian denar","codeCurrency":"MKD"},{"city":"Strumica","lat":"41.4375","lon":"22.6433","country":"Macedonia","currency":"Macedonian denar","codeCurrency":"MKD"},{"city":"Makedonski Brod","lat":"41.5136","lon":"21.2153","country":"Macedonia","currency":"Macedonian denar","codeCurrency":"MKD"},{"city":"Rostuša","lat":"41.61","lon":"20.6","country":"Macedonia","currency":"Macedonian denar","codeCurrency":"MKD"},{"city":"Struga","lat":"41.178","lon":"20.6778","country":"Macedonia","currency":"Macedonian denar","codeCurrency":"MKD"},{"city":"Čučer-Sandevo","lat":"42.102","lon":"21.3846","country":"Macedonia","currency":"Macedonian denar","codeCurrency":"MKD"},{"city":"Novo Selo","lat":"41.4149","lon":"22.8816","country":"Macedonia","currency":"Macedonian denar","codeCurrency":"MKD"},{"city":"Zelenikovo","lat":"41.8841","lon":"21.5885","country":"Macedonia","currency":"Macedonian denar","codeCurrency":"MKD"},{"city":"Star Dojran","lat":"41.1865","lon":"22.7203","country":"Macedonia","currency":"Macedonian denar","codeCurrency":"MKD"},{"city":"Skopje","lat":"42","lon":"21.4335","country":"Macedonia","currency":"Macedonian denar","codeCurrency":"MKD"},{"city":"Štip","lat":"41.7423","lon":"22.1979","country":"Macedonia","currency":"Macedonian denar","codeCurrency":"MKD"},{"city":"Makedonska Kamenica","lat":"42.0208","lon":"22.5876","country":"Macedonia","currency":"Macedonian denar","codeCurrency":"MKD"},{"city":"Ilinden","lat":"41.9945","lon":"21.58","country":"Macedonia","currency":"Macedonian denar","codeCurrency":"MKD"},{"city":"Demir Hisar","lat":"41.221","lon":"21.203","country":"Macedonia","currency":"Macedonian denar","codeCurrency":"MKD"},{"city":"Želino","lat":"41.9825","lon":"21.0624","country":"Macedonia","currency":"Macedonian denar","codeCurrency":"MKD"},{"city":"Prilep","lat":"41.3451","lon":"21.555","country":"Macedonia","currency":"Macedonian denar","codeCurrency":"MKD"},{"city":"Bitola","lat":"41.0391","lon":"21.3395","country":"Macedonia","currency":"Macedonian denar","codeCurrency":"MKD"},{"city":"Krivogaštani","lat":"41.3369","lon":"21.3311","country":"Macedonia","currency":"Macedonian denar","codeCurrency":"MKD"},{"city":"Kruševo","lat":"41.3694","lon":"21.2483","country":"Macedonia","currency":"Macedonian denar","codeCurrency":"MKD"},{"city":"Vasilevo","lat":"41.4741","lon":"22.643","country":"Macedonia","currency":"Macedonian denar","codeCurrency":"MKD"},{"city":"Gostivar","lat":"41.796","lon":"20.9082","country":"Macedonia","currency":"Macedonian denar","codeCurrency":"MKD"},{"city":"Vrapčište","lat":"41.8344","lon":"20.8856","country":"Macedonia","currency":"Macedonian denar","codeCurrency":"MKD"},{"city":"Novaci","lat":"41.042","lon":"21.4587","country":"Macedonia","currency":"Macedonian denar","codeCurrency":"MKD"},{"city":"Čaška","lat":"41.6487","lon":"21.6922","country":"Macedonia","currency":"Macedonian denar","codeCurrency":"MKD"},{"city":"Kratovo","lat":"42.0784","lon":"22.1807","country":"Macedonia","currency":"Macedonian denar","codeCurrency":"MKD"},{"city":"Probištip","lat":"42.0019","lon":"22.1728","country":"Macedonia","currency":"Macedonian denar","codeCurrency":"MKD"},{"city":"Debar","lat":"41.5244","lon":"20.5242","country":"Macedonia","currency":"Macedonian denar","codeCurrency":"MKD"},{"city":"Centar Župa","lat":"41.4788","lon":"20.5586","country":"Macedonia","currency":"Macedonian denar","codeCurrency":"MKD"},{"city":"Rosoman","lat":"41.5167","lon":"21.9458","country":"Macedonia","currency":"Macedonian denar","codeCurrency":"MKD"},{"city":"Jegunovce","lat":"42.0724","lon":"21.1237","country":"Macedonia","currency":"Macedonian denar","codeCurrency":"MKD"},{"city":"Demir Kapija","lat":"41.4061","lon":"22.2463","country":"Macedonia","currency":"Macedonian denar","codeCurrency":"MKD"},{"city":"Negotino","lat":"41.4846","lon":"22.0906","country":"Macedonia","currency":"Macedonian denar","codeCurrency":"MKD"},{"city":"Konče","lat":"41.4951","lon":"22.3836","country":"Macedonia","currency":"Macedonian denar","codeCurrency":"MKD"},{"city":"Dolneni","lat":"41.4258","lon":"21.454","country":"Macedonia","currency":"Macedonian denar","codeCurrency":"MKD"},